[
  {
    "city": "Decatur",
    "grid_voltage": 34.5,
    "name": "Tate & Lyle Decatur Plant Cogen",
    "ba_code": "MISO",
    "long": -88.931944,
    "county": "Macon",
    "state": "IL",
    "zip": 62525,
    "address": "2200 East Eldorado St",
    "lat": 39.84919,
    "grid_owner_id": 9208,
    "water_source": "Municipality",
    "type": "Industrial CHP",
    "id": 10867
  },
  {
    "city": "Lafayette",
    "grid_voltage": 12.47,
    "name": "Sagamore Plant Cogeneration",
    "ba_code": "MISO",
    "long": -86.86,
    "county": "Tippecanoe",
    "state": "IN",
    "zip": 47904,
    "address": "2245 Sagamorc Parkway North",
    "lat": 40.4439,
    "grid_owner_id": 15470,
    "water_source": "Wells",
    "type": "Industrial CHP",
    "id": 50903
  },
  {
    "city": "Panama",
    "grid_voltage": 161,
    "name": "AES Shady Point LLC",
    "ba_code": "SWPP",
    "long": -94.6458,
    "county": "Le Flore",
    "state": "OK",
    "zip": 74951,
    "address": "PO Box 1740",
    "lat": 35.1931,
    "grid_owner_id": 56403,
    "water_source": "Poteau River",
    "type": "IPP CHP",
    "id": 10671
  },
  {
    "city": "Dresden",
    "grid_voltage": 115,
    "name": "Greenidge Generation LLC",
    "ba_code": "NYIS",
    "long": -76.9483,
    "county": "Yates",
    "state": "NY",
    "zip": 14441,
    "address": "590 Plant Road",
    "lat": 42.6789,
    "grid_owner_id": 13511,
    "water_source": "Seneca Lake",
    "type": "IPP Non-CHP",
    "id": 2527
  },
  {
    "city": "Iva",
    "grid_voltage": 44,
    "name": "Rocky River (SC)",
    "ba_code": "DUK",
    "long": -82.6097,
    "county": "Anderson",
    "state": "SC",
    "zip": 29655,
    "address": "146 Power Dam Lane",
    "lat": 34.2572,
    "grid_owner_id": 34,
    "water_source": "Lake Secession",
    "type": "Electric Utility",
    "id": 3305
  },
  {
    "city": "Cumberland",
    "grid_voltage": 138,
    "name": "AES Warrior Run Cogeneration Facility",
    "ba_code": "PJM",
    "long": -78.745333,
    "county": "Allegany",
    "state": "MD",
    "zip": 21502,
    "address": "11600 Mexico Farms Rd, S.E.",
    "lat": 39.595171,
    "grid_owner_id": 6449,
    "water_source": "City Of Cumberland Water Suppl",
    "type": "IPP CHP",
    "id": 10678
  },
  {
    "city": "Trona",
    "grid_voltage": 115,
    "name": "ACE Cogeneration Facility",
    "ba_code": "CISO",
    "long": -117.383584,
    "county": "San Bernardino",
    "state": "CA",
    "zip": 93562,
    "address": "12801 Mariposa St.",
    "lat": 35.765767,
    "grid_owner_id": 17609,
    "water_source": "Wells",
    "type": "IPP CHP",
    "id": 10002
  },
  {
    "city": "ADA",
    "grid_voltage": 47.6,
    "name": "Ada Cogeneration LP",
    "ba_code": "MISO",
    "long": -85.494071,
    "county": "Kent",
    "state": "MI",
    "zip": 49355,
    "address": "7575 Fulton Street East",
    "lat": 42.962672,
    "grid_owner_id": 4254,
    "water_source": "City Water",
    "type": "IPP CHP",
    "id": 10819
  },
  {
    "city": "Tangier",
    "grid_voltage": 12.47,
    "name": "Tangier",
    "ba_code": "PJM",
    "long": -75.9915,
    "county": "Accomack",
    "state": "VA",
    "zip": 23440,
    "address": "4463 Janders Rd",
    "lat": 37.8277,
    "grid_owner_id": 84,
    "water_source": "Wells",
    "type": "Electric Utility",
    "id": 6390
  },
  {
    "city": "Ewell",
    "grid_voltage": 12.47,
    "name": "Smith Island",
    "ba_code": "PJM",
    "long": -76.0353,
    "county": "Somerset",
    "state": "MD",
    "zip": 21824,
    "address": "20697 Caleb Jones Rd",
    "lat": 37.9933,
    "grid_owner_id": 84,
    "water_source": "Wells",
    "type": "Electric Utility",
    "id": 6391
  },
  {
    "city": "Londonderry",
    "grid_voltage": 230,
    "name": "Granite Ridge",
    "ba_code": "ISNE",
    "long": -71.4261,
    "county": "Rockingham",
    "state": "NH",
    "zip": 3053,
    "address": "21 North Wentworth Avenue",
    "lat": 42.9042,
    "grid_owner_id": 15472,
    "water_source": "City of Manchester POTW",
    "type": "IPP Non-CHP",
    "id": 55170
  },
  {
    "city": "Eagle Grove",
    "grid_voltage": 12.6,
    "name": "AG Processing Inc",
    "ba_code": "MISO",
    "long": -93.902606,
    "county": "Wright",
    "state": "IA",
    "zip": 50533,
    "address": "500 N Commercial",
    "lat": 42.665941,
    "grid_owner_id": 12341,
    "water_source": "Well",
    "type": "Industrial CHP",
    "id": 10223
  },
  {
    "city": "Lake Charles",
    "grid_voltage": 69,
    "name": "Agrilectric Power Partners Ltd",
    "ba_code": "MISO",
    "long": -93.1269,
    "county": "Calcasieu",
    "state": "LA",
    "zip": 70615,
    "address": "3063 Hwy. 397",
    "lat": 30.2012,
    "grid_owner_id": 55936,
    "water_source": "Rainwater Cooling",
    "type": "IPP Non-CHP",
    "id": 10593
  },
  {
    "city": "Monaca",
    "grid_voltage": 138,
    "name": "AES Beaver Valley Partners Beaver Valley",
    "ba_code": "PJM",
    "long": -80.353929,
    "county": "Beaver",
    "state": "PA",
    "zip": 15061,
    "address": "394 Frankfort Rd.",
    "lat": 40.657218,
    "grid_owner_id": 5487,
    "water_source": "Nova Chemical Co (Ohio River)",
    "type": "IPP CHP",
    "id": 10676
  },
  {
    "city": "Adrian",
    "grid_voltage": 4.16,
    "name": "Adrian",
    "ba_code": "WAUE",
    "long": -95.943611,
    "county": "NOBLES",
    "state": "MN",
    "zip": 56110,
    "address": "20 Main Avenue",
    "lat": 43.639167,
    "grid_owner_id": 150,
    "water_source": "N/A",
    "type": "Electric Utility",
    "id": 1956
  },
  {
    "city": "McKittrick",
    "grid_voltage": 115,
    "name": "South Belridge Cogeneration Facility",
    "ba_code": "CISO",
    "long": -119.7075,
    "county": "Kern",
    "state": "CA",
    "zip": 93251,
    "address": "19590 Seventh Standard Rd",
    "lat": 35.438611,
    "grid_owner_id": 14328,
    "water_source": "N/A",
    "type": "Industrial CHP",
    "id": 50752
  },
  {
    "city": "Lost Hills",
    "grid_voltage": 115,
    "name": "Lost Hills Cogeneration Plant",
    "ba_code": "CISO",
    "long": -119.766944,
    "county": "Kern",
    "state": "CA",
    "zip": 93251,
    "address": "Holloway Rd and Highway 46",
    "lat": 35.666111,
    "grid_owner_id": 14328,
    "water_source": "N/A",
    "type": "Industrial CHP",
    "id": 52077
  },
  {
    "city": "McKittrick",
    "grid_voltage": 115,
    "name": "Aera South Belridge Cogen Facility",
    "ba_code": "CISO",
    "long": -119.6864,
    "county": "Kern",
    "state": "CA",
    "zip": 93251,
    "address": "Highway 33 and Lost Hills Rd",
    "lat": 35.4292,
    "grid_owner_id": 14328,
    "water_source": "N/A",
    "type": "Industrial CHP",
    "id": 55185
  },
  {
    "city": "Kapolei",
    "grid_voltage": 138,
    "name": "AES Hawaii",
    "ba_code": null,
    "long": -158.106528,
    "county": "Honolulu",
    "state": "HI",
    "zip": 96707,
    "address": "91-086 Kaomi Loop",
    "lat": 21.303419,
    "grid_owner_id": 19547,
    "water_source": "Wells",
    "type": "IPP CHP",
    "id": 10673
  },
  {
    "city": "Santa Clarita",
    "grid_voltage": 66,
    "name": "CES Placerita Power Plant",
    "ba_code": "CISO",
    "long": -118.4999,
    "county": "Los Angeles",
    "state": "CA",
    "zip": 91321,
    "address": "20885 Placerita Canyon Road",
    "lat": 34.3801,
    "grid_owner_id": 17609,
    "water_source": "Underground water well",
    "type": "IPP Non-CHP",
    "id": 10677
  },
  {
    "city": "Kenai",
    "grid_voltage": 24.8,
    "name": "Agrium Kenai Nitrogen Operations",
    "ba_code": null,
    "long": -151.3784,
    "county": "Kenai Peninsula",
    "state": "AK",
    "zip": 99611,
    "address": "Mile 21.5 Kenai Spur Highway",
    "lat": 60.6732,
    "grid_owner_id": 19558,
    "water_source": "Wells",
    "type": "Industrial CHP",
    "id": 54452
  },
  {
    "city": "Andalusia",
    "grid_voltage": 230,
    "name": "Gantt",
    "ba_code": "AEC",
    "long": -86.479469,
    "county": "Covington",
    "state": "AL",
    "zip": 36421,
    "address": "28605 Powerhouse Road",
    "lat": 31.4033,
    "grid_owner_id": 189,
    "water_source": "Conecuh River",
    "type": "Electric Utility",
    "id": 53
  },
  {
    "city": "Andalusia",
    "grid_voltage": 230,
    "name": "Point A",
    "ba_code": "AEC",
    "long": -86.518307,
    "county": "Covington",
    "state": "AL",
    "zip": 36421,
    "address": "25482 Firetower Lane",
    "lat": 31.361146,
    "grid_owner_id": 189,
    "water_source": "Conecuh River",
    "type": "Electric Utility",
    "id": 55
  },
  {
    "city": "Leroy",
    "grid_voltage": 230,
    "name": "Charles R Lowman",
    "ba_code": "AEC",
    "long": -87.910747,
    "county": "Washington",
    "state": "AL",
    "zip": 36548,
    "address": "Carson Road",
    "lat": 31.488019,
    "grid_owner_id": 189,
    "water_source": "Tombigbee River",
    "type": "Electric Utility",
    "id": 56
  },
  {
    "city": "Gantt",
    "grid_voltage": 230,
    "name": "McWilliams",
    "ba_code": "AEC",
    "long": -86.476449,
    "county": "Covington",
    "state": "AL",
    "zip": 36038,
    "address": "28570 US 29 North",
    "lat": 31.400255,
    "grid_owner_id": 189,
    "water_source": "Conecuh River",
    "type": "Electric Utility",
    "id": 533
  },
  {
    "city": "Eglin AFB",
    "grid_voltage": 115,
    "name": "Portland (FL)",
    "ba_code": "AEC",
    "long": -86.215833,
    "county": "Walton",
    "state": "FL",
    "zip": 32542,
    "address": "C-6 Radar Site Eglin AFB",
    "lat": 30.573611,
    "grid_owner_id": 189,
    "water_source": null,
    "type": "Electric Utility",
    "id": 6192
  },
  {
    "city": "McIntosh",
    "grid_voltage": 230,
    "name": "McIntosh (AL)",
    "ba_code": "AEC",
    "long": -88.0299,
    "county": "Washington",
    "state": "AL",
    "zip": 36553,
    "address": "Hwy 43, Mile 37.5",
    "lat": 31.2546,
    "grid_owner_id": 189,
    "water_source": "Ciba",
    "type": "Electric Utility",
    "id": 7063
  },
  {
    "city": "Albuquerque",
    "grid_voltage": 15,
    "name": "Southside Water Reclamation Plant",
    "ba_code": "PNM",
    "long": -106.669722,
    "county": "Bernalillo",
    "state": "NM",
    "zip": 87105,
    "address": "4210 2nd st SW",
    "lat": 35.016111,
    "grid_owner_id": 15473,
    "water_source": null,
    "type": "IPP CHP",
    "id": 10339
  },
  {
    "city": "Northport",
    "grid_voltage": 115,
    "name": "Bankhead Dam",
    "ba_code": "SOCO",
    "long": -87.356823,
    "county": "Tuscaloosa",
    "state": "AL",
    "zip": 35476,
    "address": "19001 Lock 17 Road",
    "lat": 33.458665,
    "grid_owner_id": 195,
    "water_source": "Black Warrior River",
    "type": "Electric Utility",
    "id": 2
  },
  {
    "city": "Bucks",
    "grid_voltage": 230,
    "name": "Barry",
    "ba_code": "SOCO",
    "long": -88.0103,
    "county": "Mobile",
    "state": "AL",
    "zip": 36512,
    "address": "North Highway 43",
    "lat": 31.0069,
    "grid_owner_id": 195,
    "water_source": "Mobile River",
    "type": "Electric Utility",
    "id": 3
  },
  {
    "city": "Wetumpka",
    "grid_voltage": 115,
    "name": "Walter Bouldin Dam",
    "ba_code": "SOCO",
    "long": -86.283056,
    "county": "Elmore",
    "state": "AL",
    "zip": 36092,
    "address": "750 Bouldin Dam Road",
    "lat": 32.583889,
    "grid_owner_id": 195,
    "water_source": "Coosa River",
    "type": "Electric Utility",
    "id": 4
  },
  {
    "city": "Gadsden",
    "grid_voltage": 115,
    "name": "Gadsden",
    "ba_code": "SOCO",
    "long": -85.9708,
    "county": "Etowah",
    "state": "AL",
    "zip": 35903,
    "address": "1000 Goodyear Ave",
    "lat": 34.0128,
    "grid_owner_id": 195,
    "water_source": "Coosa River",
    "type": "Electric Utility",
    "id": 7
  },
  {
    "city": "Parrish",
    "grid_voltage": 230,
    "name": "Gorgas",
    "ba_code": "SOCO",
    "long": -87.196486,
    "county": "Walker",
    "state": "AL",
    "zip": 35580,
    "address": "460 Gorgas Road",
    "lat": 33.644344,
    "grid_owner_id": 195,
    "water_source": "Warrior River",
    "type": "Electric Utility",
    "id": 8
  },
  {
    "city": "Demopolis",
    "grid_voltage": 230,
    "name": "Greene County",
    "ba_code": "SOCO",
    "long": -87.7811,
    "county": "Greene",
    "state": "AL",
    "zip": 36732,
    "address": "Highway 43",
    "lat": 32.6017,
    "grid_owner_id": 195,
    "water_source": "Black Warrior River",
    "type": "Electric Utility",
    "id": 10
  },
  {
    "city": "Ohatchee",
    "grid_voltage": 115,
    "name": "H Neely Henry Dam",
    "ba_code": "SOCO",
    "long": -86.0524,
    "county": "Calhoun",
    "state": "AL",
    "zip": 36271,
    "address": "1021 Ala Highway 144",
    "lat": 33.7845,
    "grid_owner_id": 195,
    "water_source": "Coosa River",
    "type": "Electric Utility",
    "id": 11
  },
  {
    "city": "Tuscaloosa",
    "grid_voltage": 115,
    "name": "Holt Dam",
    "ba_code": "SOCO",
    "long": -87.4495,
    "county": "Tuscaloosa",
    "state": "AL",
    "zip": 35476,
    "address": "12117 Power Plant Road",
    "lat": 33.2553,
    "grid_owner_id": 195,
    "water_source": "Black Warrior River",
    "type": "Electric Utility",
    "id": 12
  },
  {
    "city": "Wetumpka",
    "grid_voltage": 115,
    "name": "Jordan Dam",
    "ba_code": "SOCO",
    "long": -86.2548,
    "county": "Elmore",
    "state": "AL",
    "zip": 36092,
    "address": "6150Jordan Dam Lane",
    "lat": 32.6189,
    "grid_owner_id": 195,
    "water_source": "Coosa River",
    "type": "Electric Utility",
    "id": 13
  },
  {
    "city": "Vincent",
    "grid_voltage": 115,
    "name": "Logan Martin Dam",
    "ba_code": "SOCO",
    "long": -86.337547,
    "county": "Talladega",
    "state": "AL",
    "zip": 35178,
    "address": "299 Logan Martin Road",
    "lat": 33.425878,
    "grid_owner_id": 195,
    "water_source": "Coosa River",
    "type": "Electric Utility",
    "id": 14
  },
  {
    "city": "Clanton",
    "grid_voltage": 115,
    "name": "Lay Dam",
    "ba_code": "SOCO",
    "long": -86.5187,
    "county": "Chilton",
    "state": "AL",
    "zip": 35045,
    "address": "626 County Road 794",
    "lat": 32.9633,
    "grid_owner_id": 195,
    "water_source": "Coosa River",
    "type": "Electric Utility",
    "id": 15
  },
  {
    "city": "Dadeville",
    "grid_voltage": 115,
    "name": "Martin Dam",
    "ba_code": "SOCO",
    "long": -85.911442,
    "county": "Elmore",
    "state": "AL",
    "zip": 36078,
    "address": "675 Overlook Drive",
    "lat": 32.680394,
    "grid_owner_id": 195,
    "water_source": "Tallapoosa River",
    "type": "Electric Utility",
    "id": 16
  },
  {
    "city": "Verbena",
    "grid_voltage": 115,
    "name": "Mitchell Dam",
    "ba_code": "SOCO",
    "long": -86.444892,
    "county": "Coosa",
    "state": "AL",
    "zip": 36091,
    "address": "2235 County Road 93",
    "lat": 32.806025,
    "grid_owner_id": 195,
    "water_source": "Coosa River",
    "type": "Electric Utility",
    "id": 17
  },
  {
    "city": "Jasper",
    "grid_voltage": 161,
    "name": "Lewis Smith Dam",
    "ba_code": "SOCO",
    "long": -87.1077,
    "county": "Walker",
    "state": "AL",
    "zip": 35501,
    "address": "640 Powerhouse Road",
    "lat": 33.9406,
    "grid_owner_id": 195,
    "water_source": "Sipsey Fork Black Warrior Rive",
    "type": "Electric Utility",
    "id": 18
  },
  {
    "city": "Tallassee",
    "grid_voltage": 115,
    "name": "Thurlow Dam",
    "ba_code": "SOCO",
    "long": -85.887614,
    "county": "Elmore",
    "state": "AL",
    "zip": 36078,
    "address": "249 Outer Drive",
    "lat": 32.535436,
    "grid_owner_id": 195,
    "water_source": "Tallapoosa River",
    "type": "Electric Utility",
    "id": 19
  },
  {
    "city": "Leesburg",
    "grid_voltage": 115,
    "name": "Weiss Dam",
    "ba_code": "SOCO",
    "long": -85.753806,
    "county": "Cherokee",
    "state": "AL",
    "zip": 35983,
    "address": "2500 County Road 20",
    "lat": 34.172142,
    "grid_owner_id": 195,
    "water_source": "Coosa River",
    "type": "Electric Utility",
    "id": 20
  },
  {
    "city": "Tallassee",
    "grid_voltage": 115,
    "name": "Yates Dam",
    "ba_code": "SOCO",
    "long": -85.8901,
    "county": "Elmore",
    "state": "AL",
    "zip": 36078,
    "address": "County Road 44",
    "lat": 32.5743,
    "grid_owner_id": 195,
    "water_source": "Tallapoosa River",
    "type": "Electric Utility",
    "id": 21
  },
  {
    "city": "Wilsonville",
    "grid_voltage": 230,
    "name": "E C Gaston",
    "ba_code": "SOCO",
    "long": -86.458056,
    "county": "Shelby",
    "state": "AL",
    "zip": 35186,
    "address": "31972 Highway 25 North",
    "lat": 33.244211,
    "grid_owner_id": 195,
    "water_source": "Coosa River",
    "type": "Electric Utility",
    "id": 26
  },
  {
    "city": "Columbia",
    "grid_voltage": 500,
    "name": "Joseph M Farley",
    "ba_code": "SOCO",
    "long": -85.1116,
    "county": "Houston",
    "state": "AL",
    "zip": 36319,
    "address": "7388 North State Highway 95",
    "lat": 31.2231,
    "grid_owner_id": 195,
    "water_source": "Chattahoochee River",
    "type": "Electric Utility",
    "id": 6001
  },
  {
    "city": "Quinton",
    "grid_voltage": 500,
    "name": "James H Miller Jr",
    "ba_code": "SOCO",
    "long": -87.0597,
    "county": "Jefferson",
    "state": "AL",
    "zip": 35073,
    "address": "42050 Porter Road",
    "lat": 33.6319,
    "grid_owner_id": 195,
    "water_source": "Black Warrior River",
    "type": "Electric Utility",
    "id": 6002
  },
  {
    "city": "Lineville",
    "grid_voltage": 115,
    "name": "Harris Dam",
    "ba_code": "SOCO",
    "long": -85.616047,
    "county": "Randolph",
    "state": "AL",
    "zip": 36266,
    "address": "2671 County Road 100",
    "lat": 33.258281,
    "grid_owner_id": 195,
    "water_source": "Tallapoosa River",
    "type": "Electric Utility",
    "id": 6188
  },
  {
    "city": "McIntosh",
    "grid_voltage": 115,
    "name": "Washington County Cogeneration Facility",
    "ba_code": "SOCO",
    "long": -88.0156,
    "county": "Washington",
    "state": "AL",
    "zip": 36553,
    "address": "Highway 43",
    "lat": 31.2504,
    "grid_owner_id": 195,
    "water_source": "City Water",
    "type": "Electric Utility",
    "id": 7697
  },
  {
    "city": "Burkeville",
    "grid_voltage": 115,
    "name": "General Electric Plastic",
    "ba_code": "SOCO",
    "long": -86.52542,
    "county": "Lowndes",
    "state": "AL",
    "zip": 36752,
    "address": "Hwy. 43 & County Road 18",
    "lat": 32.310226,
    "grid_owner_id": 195,
    "water_source": "City Water",
    "type": "Electric Utility",
    "id": 7698
  },
  {
    "city": null,
    "grid_voltage": null,
    "name": "APC1",
    "ba_code": "SOCO",
    "long": null,
    "county": null,
    "state": "AL",
    "zip": 0,
    "address": "unsited",
    "lat": null,
    "grid_owner_id": null,
    "water_source": null,
    "type": "Electric Utility",
    "id": 7708
  },
  {
    "city": "Theodore",
    "grid_voltage": 115,
    "name": "Theodore Cogen Facility",
    "ba_code": "SOCO",
    "long": -88.128477,
    "county": "Mobile",
    "state": "AL",
    "zip": 36582,
    "address": "Industrial Blvd.",
    "lat": 30.525445,
    "grid_owner_id": 195,
    "water_source": "River",
    "type": "Electric Utility",
    "id": 7721
  },
  {
    "city": null,
    "grid_voltage": null,
    "name": "APC2",
    "ba_code": "SOCO",
    "long": null,
    "county": null,
    "state": "AL",
    "zip": null,
    "address": "unsited",
    "lat": null,
    "grid_owner_id": null,
    "water_source": null,
    "type": "Electric Utility",
    "id": 7876
  },
  {
    "city": null,
    "grid_voltage": null,
    "name": "APC3",
    "ba_code": "SOCO",
    "long": null,
    "county": null,
    "state": "AL",
    "zip": null,
    "address": "unsited",
    "lat": null,
    "grid_owner_id": null,
    "water_source": null,
    "type": "Electric Utility",
    "id": 7877
  },
  {
    "city": "Juneau",
    "grid_voltage": 23,
    "name": "Annex Creek",
    "ba_code": null,
    "long": -134.101,
    "county": "Juneau",
    "state": "AK",
    "zip": 99801,
    "address": "Annex Creek",
    "lat": 58.3176,
    "grid_owner_id": 213,
    "water_source": "Annex Creek Lake",
    "type": "Electric Utility",
    "id": 62
  },
  {
    "city": "Juneau",
    "grid_voltage": 12,
    "name": "Gold Creek",
    "ba_code": null,
    "long": -134.4174,
    "county": "Juneau",
    "state": "AK",
    "zip": 99801,
    "address": "700 Capital Ave.",
    "lat": 58.3107,
    "grid_owner_id": 213,
    "water_source": "Gold Creek",
    "type": "Electric Utility",
    "id": 63
  },
  {
    "city": "Juneau",
    "grid_voltage": 69,
    "name": "Lemon Creek",
    "ba_code": null,
    "long": -134.4953,
    "county": "Juneau",
    "state": "AK",
    "zip": 99801,
    "address": "5601 Tonsgard Ct.",
    "lat": 58.3536,
    "grid_owner_id": 213,
    "water_source": null,
    "type": "Electric Utility",
    "id": 64
  },
  {
    "city": "Juneau",
    "grid_voltage": 69,
    "name": "Salmon Creek 1",
    "ba_code": null,
    "long": -134.4631,
    "county": "Juneau",
    "state": "AK",
    "zip": 99801,
    "address": "2750 Channel Vista Dr.",
    "lat": 58.3269,
    "grid_owner_id": 213,
    "water_source": "Salmon Creek Reservoir",
    "type": "Electric Utility",
    "id": 65
  },
  {
    "city": "Juneau",
    "grid_voltage": 138,
    "name": "Snettisham",
    "ba_code": null,
    "long": -133.737,
    "county": "Juneau",
    "state": "AK",
    "zip": 99801,
    "address": "Port Snettisham",
    "lat": 58.1415,
    "grid_owner_id": 253,
    "water_source": "Long Lake And Crater Lake",
    "type": "Electric Utility",
    "id": 78
  },
  {
    "city": "Juneau",
    "grid_voltage": 69,
    "name": "Auke Bay",
    "ba_code": null,
    "long": -134.6446,
    "county": "Juneau",
    "state": "AK",
    "zip": 99801,
    "address": "12480 Mendenhall Loop Rd.",
    "lat": 58.3875,
    "grid_owner_id": 213,
    "water_source": "N/A",
    "type": "Electric Utility",
    "id": 7250
  },
  {
    "city": "Juneau",
    "grid_voltage": 138,
    "name": "Lake Dorothy Hydroelectric Project",
    "ba_code": null,
    "long": -134.0533,
    "county": "JUNEAU",
    "state": "AK",
    "zip": 99801,
    "address": "Lake Dorothy",
    "lat": 58.2325,
    "grid_owner_id": 213,
    "water_source": "Lake Dorothy",
    "type": "Electric Utility",
    "id": 57085
  },
  {
    "city": "Juneau",
    "grid_voltage": 69,
    "name": "Industrial Plant",
    "ba_code": null,
    "long": -134.60802,
    "county": "Juneau",
    "state": "AK",
    "zip": 99801,
    "address": "0 Barrett Avenue",
    "lat": 58.367635,
    "grid_owner_id": 213,
    "water_source": "Municipality",
    "type": "Electric Utility",
    "id": 59793
  },
  {
    "city": "Skagway",
    "grid_voltage": 2.4,
    "name": "Skagway",
    "ba_code": null,
    "long": -135.3131,
    "county": "Skagway Hoonah Angoon",
    "state": "AK",
    "zip": 99840,
    "address": "110 Spring St",
    "lat": 59.4545,
    "grid_owner_id": 219,
    "water_source": "Dewey Lake",
    "type": "Electric Utility",
    "id": 66
  },
  {
    "city": "Haines",
    "grid_voltage": 12.47,
    "name": "Haines",
    "ba_code": null,
    "long": -135.445,
    "county": "Haines",
    "state": "AK",
    "zip": 99927,
    "address": "241 Dalton St.",
    "lat": 59.2358,
    "grid_owner_id": 219,
    "water_source": null,
    "type": "Electric Utility",
    "id": 69
  },
  {
    "city": "Tok",
    "grid_voltage": 12.47,
    "name": "Tok",
    "ba_code": null,
    "long": -142.9856,
    "county": "Southeast Fairbanks",
    "state": "AK",
    "zip": 99780,
    "address": "Milepost 1314 AK Hwy",
    "lat": 63.3367,
    "grid_owner_id": 219,
    "water_source": "Well",
    "type": "Electric Utility",
    "id": 406
  },
  {
    "city": "Craig",
    "grid_voltage": 12.47,
    "name": "Craig (AK)",
    "ba_code": null,
    "long": -133.1483,
    "county": "Prince of Wales Ketchikan",
    "state": "AK",
    "zip": 99921,
    "address": "401 7th Street",
    "lat": 55.4764,
    "grid_owner_id": 219,
    "water_source": "Municipality",
    "type": "Electric Utility",
    "id": 421
  },
  {
    "city": "Prince of Wales",
    "grid_voltage": 2.4,
    "name": "Hydaburg",
    "ba_code": null,
    "long": -132.8267,
    "county": "Prince of Wales Ketchikan",
    "state": "AK",
    "zip": 99922,
    "address": "105 Hyda Street",
    "lat": 55.2081,
    "grid_owner_id": 219,
    "water_source": null,
    "type": "Electric Utility",
    "id": 423
  },
  {
    "city": "Tok",
    "grid_voltage": 14.4,
    "name": "Northway",
    "ba_code": null,
    "long": -141.9372,
    "county": "Southeast Fairbanks",
    "state": "AK",
    "zip": 99764,
    "address": "Milepost 1314 AK Hwy",
    "lat": 62.9617,
    "grid_owner_id": 219,
    "water_source": "Well",
    "type": "Electric Utility",
    "id": 7169
  },
  {
    "city": "Craig",
    "grid_voltage": 4.16,
    "name": "Thorne Bay Plant",
    "ba_code": null,
    "long": -132.9672,
    "county": "Prince of Wales Ketchikan",
    "state": "AK",
    "zip": 99919,
    "address": "401 7th Street",
    "lat": 55.5156,
    "grid_owner_id": 219,
    "water_source": "N/A",
    "type": "Electric Utility",
    "id": 7414
  },
  {
    "city": "Skagway",
    "grid_voltage": 34.5,
    "name": "Goat Lake Hydro",
    "ba_code": null,
    "long": -135.2123,
    "county": "Skagway Hoonah Angoon",
    "state": "AK",
    "zip": 99840,
    "address": "110 Spring St",
    "lat": 59.5357,
    "grid_owner_id": 219,
    "water_source": "Goat Lake",
    "type": "Electric Utility",
    "id": 7751
  },
  {
    "city": "Craig",
    "grid_voltage": 34.5,
    "name": "Black Bear Lake",
    "ba_code": null,
    "long": -133.14772,
    "county": "Prince of Wales Ketchikan",
    "state": "AK",
    "zip": 99921,
    "address": "401 7th Street",
    "lat": 55.476472,
    "grid_owner_id": 219,
    "water_source": "Black Bear Lake",
    "type": "Electric Utility",
    "id": 7752
  },
  {
    "city": "Thorne Bay",
    "grid_voltage": 12.47,
    "name": "False Island",
    "ba_code": null,
    "long": -133.1339,
    "county": "Prince of Wales Ketchikan",
    "state": "AK",
    "zip": 99919,
    "address": "Lot 6, Marine Industrial Park",
    "lat": 55.4889,
    "grid_owner_id": 219,
    "water_source": null,
    "type": "Electric Utility",
    "id": 56146
  },
  {
    "city": "Craig",
    "grid_voltage": 12.47,
    "name": "Viking",
    "ba_code": null,
    "long": -133.1408,
    "county": "Prince of Wales Ketchikan",
    "state": "AK",
    "zip": 99921,
    "address": "Mile 6 Craig/Klawock Highway",
    "lat": 55.4886,
    "grid_owner_id": 219,
    "water_source": null,
    "type": "Electric Utility",
    "id": 56147
  },
  {
    "city": "Klawock",
    "grid_voltage": 34.5,
    "name": "South Fork",
    "ba_code": null,
    "long": -132.891111,
    "county": "Prince of Wales Ketchikan",
    "state": "AK",
    "zip": 99925,
    "address": "Mile 8 Blackbear Lake Rd",
    "lat": 55.563333,
    "grid_owner_id": 219,
    "water_source": "South Fork Black Bear Creek",
    "type": "Electric Utility",
    "id": 56265
  },
  {
    "city": "Skagway",
    "grid_voltage": 34.5,
    "name": "Kasidaya Creek Hydro",
    "ba_code": null,
    "long": -135.3408,
    "county": "Skagway Hoonah Angoon",
    "state": "AK",
    "zip": 99840,
    "address": "Near Kasidaya Creek",
    "lat": 59.4072,
    "grid_owner_id": 219,
    "water_source": "Kawidaya Creek",
    "type": "Electric Utility",
    "id": 56542
  },
  {
    "city": "Ketchikan",
    "grid_voltage": 34.5,
    "name": "Mahoney Lake Hydroelectric",
    "ba_code": null,
    "long": -131.537778,
    "county": "Ketchikan Gateway",
    "state": "AK",
    "zip": 99901,
    "address": null,
    "lat": 55.419444,
    "grid_owner_id": 10210,
    "water_source": "Upper Mahoney Lake",
    "type": "Electric Utility",
    "id": 59027
  },
  {
    "city": "Hydaburg",
    "grid_voltage": 34.5,
    "name": "Reynolds Creek",
    "ba_code": null,
    "long": -132.603611,
    "county": "Prince of Wales Ketchikan",
    "state": "AK",
    "zip": 99922,
    "address": null,
    "lat": 55.216389,
    "grid_owner_id": 219,
    "water_source": "Lake Mellen",
    "type": "Electric Utility",
    "id": 59037
  },
  {
    "city": "Chevak",
    "grid_voltage": 12.5,
    "name": "Chevak",
    "ba_code": null,
    "long": -165.499444,
    "county": "Bethel",
    "state": "AK",
    "zip": 99563,
    "address": "14 Utility Drive",
    "lat": 61.479444,
    "grid_owner_id": 221,
    "water_source": "N/A",
    "type": "Electric Utility",
    "id": 6311
  },
  {
    "city": "Emmonak",
    "grid_voltage": 12.5,
    "name": "Emmonak",
    "ba_code": null,
    "long": -161.789722,
    "county": "Bethel",
    "state": "AK",
    "zip": 99581,
    "address": "07 Utility Drive",
    "lat": 60.788889,
    "grid_owner_id": 221,
    "water_source": "N/A",
    "type": "Electric Utility",
    "id": 6314
  },
  {
    "city": "Hooper Bay",
    "grid_voltage": 12.5,
    "name": "Hooper Bay",
    "ba_code": null,
    "long": -166.1003,
    "county": "Bethel",
    "state": "AK",
    "zip": 99604,
    "address": "08 Utility Drive",
    "lat": 61.5208,
    "grid_owner_id": 221,
    "water_source": "N/A",
    "type": "Electric Utility",
    "id": 6319
  },
  {
    "city": "Kiana",
    "grid_voltage": 12.5,
    "name": "Kiana",
    "ba_code": null,
    "long": -160.5053,
    "county": "Northwest Arctic",
    "state": "AK",
    "zip": 99749,
    "address": "01 Utility Drive",
    "lat": 67.5683,
    "grid_owner_id": 221,
    "water_source": "N/A",
    "type": "Electric Utility",
    "id": 6323
  },
  {
    "city": "Moutain Village",
    "grid_voltage": 12.5,
    "name": "Mountain Village",
    "ba_code": null,
    "long": -163.0783,
    "county": "Bethel",
    "state": "AK",
    "zip": 99632,
    "address": "68 Utility Drive",
    "lat": 62.1656,
    "grid_owner_id": 221,
    "water_source": "N/A",
    "type": "Electric Utility",
    "id": 6329
  },
  {
    "city": "Noorvik",
    "grid_voltage": 12.5,
    "name": "Noorvik",
    "ba_code": null,
    "long": -160.4958,
    "county": "Northwest Arctic",
    "state": "AK",
    "zip": 99763,
    "address": "02 Utility Drive",
    "lat": 66.8553,
    "grid_owner_id": 221,
    "water_source": "N/A",
    "type": "Electric Utility",
    "id": 6330
  },
  {
    "city": "Nunapitchuk",
    "grid_voltage": 12.5,
    "name": "Nunapitchuk",
    "ba_code": null,
    "long": -162.453333,
    "county": "Bethel",
    "state": "AK",
    "zip": 99641,
    "address": "09 Utility Drive",
    "lat": 60.875278,
    "grid_owner_id": 221,
    "water_source": "N/A",
    "type": "Electric Utility",
    "id": 6333
  },
  {
    "city": "St Marys",
    "grid_voltage": 12.5,
    "name": "St Marys IC",
    "ba_code": null,
    "long": -163.2658,
    "county": "Bethel",
    "state": "AK",
    "zip": 99658,
    "address": "26 Utility Drive",
    "lat": 62.0636,
    "grid_owner_id": 221,
    "water_source": "N/A",
    "type": "Electric Utility",
    "id": 6338
  },
  {
    "city": "Selawik",
    "grid_voltage": 12.5,
    "name": "Selawik",
    "ba_code": null,
    "long": -160.1431,
    "county": "Northwest Arctic",
    "state": "AK",
    "zip": 99770,
    "address": "03 Utility Drive",
    "lat": 66.5569,
    "grid_owner_id": 221,
    "water_source": "N/A",
    "type": "Electric Utility",
    "id": 6341
  },
  {
    "city": "Shishmaref",
    "grid_voltage": 12.5,
    "name": "Shishmaref",
    "ba_code": null,
    "long": -165.1108,
    "county": "Nome",
    "state": "AK",
    "zip": 99772,
    "address": "27 Utility Drive",
    "lat": 65.0853,
    "grid_owner_id": 221,
    "water_source": "N/A",
    "type": "Electric Utility",
    "id": 6345
  },
  {
    "city": "Togiak",
    "grid_voltage": 12.5,
    "name": "Togiak",
    "ba_code": null,
    "long": -160.385,
    "county": "Dillingham",
    "state": "AK",
    "zip": 99678,
    "address": "10 Utility Drive",
    "lat": 59.2281,
    "grid_owner_id": 221,
    "water_source": "N/A",
    "type": "Electric Utility",
    "id": 6348
  },
  {
    "city": "Bethel",
    "grid_voltage": 2.4,
    "name": "Bethel",
    "ba_code": null,
    "long": -161.787778,
    "county": "Bethel",
    "state": "AK",
    "zip": 99559,
    "address": "1340 Kwethluk Lane",
    "lat": 60.7897,
    "grid_owner_id": 1651,
    "water_source": "Cooling",
    "type": "Electric Utility",
    "id": 6566
  },
  {
    "city": "Noatak",
    "grid_voltage": 13.47,
    "name": "Noatak",
    "ba_code": null,
    "long": -162.98,
    "county": "Northwest Arctic",
    "state": "AK",
    "zip": 99761,
    "address": "PO Box 89",
    "lat": 67.57,
    "grid_owner_id": 221,
    "water_source": null,
    "type": "Electric Utility",
    "id": 57051
  },
  {
    "city": "Savoonga",
    "grid_voltage": 13.47,
    "name": "Savoonga",
    "ba_code": null,
    "long": -169.5889,
    "county": "Nome",
    "state": "AK",
    "zip": 99769,
    "address": "PO Box 40",
    "lat": 63.25,
    "grid_owner_id": 221,
    "water_source": null,
    "type": "Electric Utility",
    "id": 57052
  },
  {
    "city": "Alakanuk",
    "grid_voltage": 13.47,
    "name": "Alakanuk",
    "ba_code": null,
    "long": -164.6544,
    "county": "WADE HAMPTON",
    "state": "AK",
    "zip": 99554,
    "address": "PO Box 167",
    "lat": 62.6833,
    "grid_owner_id": 221,
    "water_source": null,
    "type": "Electric Utility",
    "id": 57053
  },
  {
    "city": "Upper Kalskag",
    "grid_voltage": 13.47,
    "name": "Upper Kalskag",
    "ba_code": null,
    "long": -160.3072,
    "county": "Bethel",
    "state": "AK",
    "zip": 99607,
    "address": "PO Box 80",
    "lat": 61.5378,
    "grid_owner_id": 221,
    "water_source": null,
    "type": "Electric Utility",
    "id": 57054
  },
  {
    "city": "Stebbins",
    "grid_voltage": 13.47,
    "name": "Stebbins",
    "ba_code": null,
    "long": -162.2489,
    "county": "Nome",
    "state": "AK",
    "zip": 99671,
    "address": "PO Box 22",
    "lat": 63.47,
    "grid_owner_id": 221,
    "water_source": null,
    "type": "Electric Utility",
    "id": 57055
  },
  {
    "city": "Scammon Bay",
    "grid_voltage": 13.47,
    "name": "Scammon Bay",
    "ba_code": null,
    "long": -165.0689,
    "county": "Wade Hampton",
    "state": "AK",
    "zip": 99662,
    "address": "PO Box 90",
    "lat": 61.79,
    "grid_owner_id": 221,
    "water_source": null,
    "type": "Electric Utility",
    "id": 57056
  },
  {
    "city": "Quinhagak",
    "grid_voltage": 13.47,
    "name": "Quinhagak",
    "ba_code": null,
    "long": -161.9008,
    "county": "Bethel",
    "state": "AK",
    "zip": 99655,
    "address": "PO Box 90",
    "lat": 59.7539,
    "grid_owner_id": 221,
    "water_source": null,
    "type": "Electric Utility",
    "id": 57057
  },
  {
    "city": "Pilot Station",
    "grid_voltage": 13.47,
    "name": "Pilot Station",
    "ba_code": null,
    "long": -162.875,
    "county": "Wade Hampton",
    "state": "AK",
    "zip": 99650,
    "address": "PO Box 5040",
    "lat": 61.9381,
    "grid_owner_id": 221,
    "water_source": null,
    "type": "Electric Utility",
    "id": 57058
  },
  {
    "city": "Koyuk",
    "grid_voltage": 13.47,
    "name": "Koyuk",
    "ba_code": null,
    "long": -161.16,
    "county": "Nome",
    "state": "AK",
    "zip": 99753,
    "address": "PO Box 29",
    "lat": 64.93,
    "grid_owner_id": 221,
    "water_source": null,
    "type": "Electric Utility",
    "id": 57059
  },
  {
    "city": "Elim",
    "grid_voltage": 13.47,
    "name": "Elim",
    "ba_code": null,
    "long": -162.2772,
    "county": "Nome",
    "state": "AK",
    "zip": 99739,
    "address": "PO Box 39009",
    "lat": 64.6206,
    "grid_owner_id": 221,
    "water_source": null,
    "type": "Electric Utility",
    "id": 57060
  },
  {
    "city": "St. Michael",
    "grid_voltage": 13.47,
    "name": "St. Michael",
    "ba_code": null,
    "long": -162.0383,
    "county": "Nome",
    "state": "AK",
    "zip": 99659,
    "address": "PO Box 59070",
    "lat": 63.4775,
    "grid_owner_id": 221,
    "water_source": null,
    "type": "Electric Utility",
    "id": 57061
  },
  {
    "city": "Gambell",
    "grid_voltage": 13.47,
    "name": "Gambell",
    "ba_code": null,
    "long": -171.7375,
    "county": "Nome",
    "state": "AK",
    "zip": 99742,
    "address": "PO Box 189",
    "lat": 63.7667,
    "grid_owner_id": 221,
    "water_source": null,
    "type": "Electric Utility",
    "id": 57062
  },
  {
    "city": "Shungnak",
    "grid_voltage": 13.47,
    "name": "Shungnak",
    "ba_code": null,
    "long": -156.9889,
    "county": "Northwest Arctic",
    "state": "AK",
    "zip": 99773,
    "address": "PO Box 59",
    "lat": 66.71,
    "grid_owner_id": 221,
    "water_source": null,
    "type": "Electric Utility",
    "id": 57063
  },
  {
    "city": "Kotlik",
    "grid_voltage": 13.47,
    "name": "Kotlik",
    "ba_code": null,
    "long": -163.7614,
    "county": "Wade Hampton",
    "state": "AK",
    "zip": 99620,
    "address": "PO Box 20268",
    "lat": 62.9456,
    "grid_owner_id": 221,
    "water_source": null,
    "type": "Electric Utility",
    "id": 57064
  },
  {
    "city": "Kivalina",
    "grid_voltage": 13.47,
    "name": "Kivalina",
    "ba_code": null,
    "long": -163.7189,
    "county": "Northwest Arctic",
    "state": "AK",
    "zip": 99750,
    "address": "PO Box 50079",
    "lat": 67.63,
    "grid_owner_id": 221,
    "water_source": null,
    "type": "Electric Utility",
    "id": 57065
  },
  {
    "city": "Kasigluk",
    "grid_voltage": 13.47,
    "name": "Kasigluk",
    "ba_code": null,
    "long": -162.5197,
    "county": "Bethel",
    "state": "AK",
    "zip": 99609,
    "address": "PO Box 19 Akula Heights",
    "lat": 60.8731,
    "grid_owner_id": 221,
    "water_source": null,
    "type": "Electric Utility",
    "id": 57066
  },
  {
    "city": "Toksook Bay",
    "grid_voltage": 13.47,
    "name": "Toksook Bay",
    "ba_code": null,
    "long": -164.7489,
    "county": "Bethel",
    "state": "AK",
    "zip": 99637,
    "address": "Nelson Island, PO Box 37008",
    "lat": 60.6,
    "grid_owner_id": 221,
    "water_source": null,
    "type": "Electric Utility",
    "id": 57067
  },
  {
    "city": "Akron",
    "grid_voltage": 69,
    "name": "Akron WRF",
    "ba_code": "PJM",
    "long": -81.568889,
    "county": "Summit",
    "state": "OH",
    "zip": 44313,
    "address": "2460 Akron Peninsula Rd",
    "lat": 41.153333,
    "grid_owner_id": 13998,
    "water_source": null,
    "type": "Commercial CHP",
    "id": 58980
  },
  {
    "city": "Albany",
    "grid_voltage": 13.2,
    "name": "Albany",
    "ba_code": "AECI",
    "long": -94.3303,
    "county": "GENTRY",
    "state": "MO",
    "zip": 64402,
    "address": "906 W. South St.",
    "lat": 40.2478,
    "grid_owner_id": 13190,
    "water_source": "N/A",
    "type": "Electric Utility",
    "id": 2113
  },
  {
    "city": "Albertville",
    "grid_voltage": 161,
    "name": "Albertville",
    "ba_code": "TVA",
    "long": -86.3297,
    "county": "Marshall",
    "state": "AL",
    "zip": 35951,
    "address": "511 Water Plant Rd.",
    "lat": 34.3003,
    "grid_owner_id": 18642,
    "water_source": "N/A",
    "type": "Electric Utility",
    "id": 7924
  },
  {
    "city": "Newburgh",
    "grid_voltage": 138,
    "name": "Warrick",
    "ba_code": "MISO",
    "long": -87.3328,
    "county": "Warrick",
    "state": "IN",
    "zip": 47630,
    "address": "4700 Darlington Rd.",
    "lat": 37.915,
    "grid_owner_id": 17633,
    "water_source": "Ohio River",
    "type": "IPP CHP",
    "id": 6705
  },
  {
    "city": "Windsor Locks",
    "grid_voltage": 115,
    "name": "Algonquin Windsor Locks",
    "ba_code": "ISNE",
    "long": -72.6255,
    "county": "HARTFORD",
    "state": "CT",
    "zip": 6096,
    "address": "26 Canal Bank Rd",
    "lat": 41.9227,
    "grid_owner_id": 4176,
    "water_source": "Windsor Locks Canal",
    "type": "IPP CHP",
    "id": 10567
  },
  {
    "city": "Alexandria",
    "grid_voltage": 13.2,
    "name": "Alexandria",
    "ba_code": "MISO",
    "long": -95.379722,
    "county": "Douglas",
    "state": "MN",
    "zip": 56308,
    "address": "PO Box 609",
    "lat": 45.889167,
    "grid_owner_id": 295,
    "water_source": "Lake Winona",
    "type": "Electric Utility",
    "id": 1958
  },
  {
    "city": "Alexandria",
    "grid_voltage": 138,
    "name": "D G Hunter",
    "ba_code": "MISO",
    "long": -92.4613,
    "county": "Rapides",
    "state": "LA",
    "zip": 71301,
    "address": "1011 North Third Street",
    "lat": 31.3207,
    "grid_owner_id": 298,
    "water_source": "WELLS",
    "type": "Electric Utility",
    "id": 6558
  },
  {
    "city": "Robbinsville",
    "grid_voltage": 161,
    "name": "Santeetlah",
    "ba_code": "TVA",
    "long": -83.863889,
    "county": "Graham",
    "state": "NC",
    "zip": 28771,
    "address": "Hwy 129",
    "lat": 35.4475,
    "grid_owner_id": 306,
    "water_source": "Cheoah River",
    "type": "Electric Utility",
    "id": 54898
  },
  {
    "city": "Tapoco",
    "grid_voltage": 161,
    "name": "Cheoah",
    "ba_code": "TVA",
    "long": -83.9383,
    "county": "Graham",
    "state": "NC",
    "zip": 28771,
    "address": "Hwy 129",
    "lat": 35.4478,
    "grid_owner_id": 306,
    "water_source": "Little Tennessee River",
    "type": "Electric Utility",
    "id": 54899
  },
  {
    "city": "Tallassee",
    "grid_voltage": 161,
    "name": "Calderwood",
    "ba_code": "TVA",
    "long": -83.9806,
    "county": "Blount",
    "state": "TN",
    "zip": 37878,
    "address": "314 Growdon Blvd.",
    "lat": 35.4923,
    "grid_owner_id": 306,
    "water_source": "Little Tennessee River",
    "type": "Electric Utility",
    "id": 54900
  },
  {
    "city": "Tallassee",
    "grid_voltage": 161,
    "name": "Chilhowee",
    "ba_code": "TVA",
    "long": -84.0503,
    "county": "Blount",
    "state": "TN",
    "zip": 37801,
    "address": "6102 Calderwood Hwy",
    "lat": 35.5453,
    "grid_owner_id": 306,
    "water_source": "Little Tennessee River",
    "type": "Electric Utility",
    "id": 54901
  },
  {
    "city": "Algona",
    "grid_voltage": 13.8,
    "name": "Algona",
    "ba_code": "MISO",
    "long": -94.2392,
    "county": "Kossuth",
    "state": "IA",
    "zip": 50511,
    "address": "521 N Hall St.",
    "lat": 43.0733,
    "grid_owner_id": 309,
    "water_source": "Wells",
    "type": "Electric Utility",
    "id": 1120
  },
  {
    "city": "Algona",
    "grid_voltage": 13.8,
    "name": "Iowa Distributed Wind Generation Project",
    "ba_code": "MISO",
    "long": -94.140556,
    "county": "Kossuth",
    "state": "IA",
    "zip": 50511,
    "address": "1604 190th Street",
    "lat": 43.034722,
    "grid_owner_id": 309,
    "water_source": "NA",
    "type": "Electric Utility",
    "id": 7966
  },
  {
    "city": "Badin",
    "grid_voltage": 100,
    "name": "Narrows (NC)",
    "ba_code": "YAD",
    "long": -80.0917,
    "county": "Stanly",
    "state": "NC",
    "zip": 28009,
    "address": "37720 Pine Street",
    "lat": 35.4189,
    "grid_owner_id": 56093,
    "water_source": "Yadkin River",
    "type": "Electric Utility",
    "id": 54894
  },
  {
    "city": "Badin",
    "grid_voltage": 100,
    "name": "Falls Hydro",
    "ba_code": "YAD",
    "long": -80.0753,
    "county": "Stanly",
    "state": "NC",
    "zip": 28009,
    "address": "49156 Falls Road",
    "lat": 35.3944,
    "grid_owner_id": 56093,
    "water_source": "Yadkin River",
    "type": "Electric Utility",
    "id": 54895
  },
  {
    "city": "Denton",
    "grid_voltage": 100,
    "name": "High Rock Hydro",
    "ba_code": "YAD",
    "long": -80.2339,
    "county": "Davidson",
    "state": "NC",
    "zip": 28239,
    "address": "3344 Bringle Ferry Road",
    "lat": 35.6008,
    "grid_owner_id": 56093,
    "water_source": "Yadkin River",
    "type": "Electric Utility",
    "id": 54896
  },
  {
    "city": "New London",
    "grid_voltage": 100,
    "name": "Tuckertown Hydro",
    "ba_code": "YAD",
    "long": -80.1758,
    "county": "Montgomery",
    "state": "NC",
    "zip": 28127,
    "address": "711 Tuckertown Road",
    "lat": 35.4856,
    "grid_owner_id": 56093,
    "water_source": "Yadkin River",
    "type": "Electric Utility",
    "id": 54897
  },
  {
    "city": "Keeseville",
    "grid_voltage": 23,
    "name": "Alice Falls Hydro Project",
    "ba_code": "NYIS",
    "long": -73.464752,
    "county": "Clinton",
    "state": "NY",
    "zip": 12944,
    "address": "Route 9",
    "lat": 44.519153,
    "grid_owner_id": 13511,
    "water_source": "Ausable River",
    "type": "IPP Non-CHP",
    "id": 54391
  },
  {
    "city": "Pasadena",
    "grid_voltage": 138,
    "name": "Bayou Cogen Plant",
    "ba_code": "ERCO",
    "long": -95.0458,
    "county": "Harris",
    "state": "TX",
    "zip": 77507,
    "address": "11777 Bay Area Blvd",
    "lat": 29.6225,
    "grid_owner_id": 8901,
    "water_source": "Coastal Water Authority",
    "type": "Industrial CHP",
    "id": 10298
  },
  {
    "city": "Huntingdon",
    "grid_voltage": 46,
    "name": "William F Matson Generating Station",
    "ba_code": "PJM",
    "long": -78.002887,
    "county": "HUNTINGDON",
    "state": "PA",
    "zip": 16652,
    "address": "13797 Point Road",
    "lat": 40.432915,
    "grid_owner_id": 14711,
    "water_source": "Raystown Branch Juniata River",
    "type": "Electric Utility",
    "id": 7128
  },
  {
    "city": "Port Neches",
    "grid_voltage": 69,
    "name": "Port Neches Plant",
    "ba_code": "MISO",
    "long": -93.952294,
    "county": "Jefferson",
    "state": "TX",
    "zip": 77651,
    "address": "2121 Park Street",
    "lat": 29.97876,
    "grid_owner_id": 7806,
    "water_source": "Ind Gas Manure",
    "type": "Industrial CHP",
    "id": 54748
  },
  {
    "city": "Geismar",
    "grid_voltage": 138,
    "name": "Geismar Cogen",
    "ba_code": "MISO",
    "long": -90.9921,
    "county": "Ascension",
    "state": "LA",
    "zip": 70734,
    "address": "36597 Hwy 30",
    "lat": 30.209,
    "grid_owner_id": 11241,
    "water_source": "BASF/Mississippi River",
    "type": "Industrial CHP",
    "id": 56787
  },
  {
    "city": "Lawrenceburg",
    "grid_voltage": 345,
    "name": "Lawrenceburg Energy Facility",
    "ba_code": "PJM",
    "long": -84.8669,
    "county": "Dearborn",
    "state": "IN",
    "zip": 47025,
    "address": "582 W. Eads Parkway",
    "lat": 39.0911,
    "grid_owner_id": 9324,
    "water_source": "Tanners Creek",
    "type": "Electric Utility",
    "id": 55502
  },
  {
    "city": "Dubuque",
    "grid_voltage": 0.48,
    "name": "Alliant SBD 9205 A Y McDonald",
    "ba_code": "MISO",
    "long": -90.745,
    "county": "Dubuque",
    "state": "IA",
    "zip": 52002,
    "address": "4800 Chavenelle Road",
    "lat": 42.490556,
    "grid_owner_id": 56088,
    "water_source": null,
    "type": "IPP Non-CHP",
    "id": 54710
  },
  {
    "city": "Postville",
    "grid_voltage": 0.48,
    "name": "Alliant SBD 9201 Norplex",
    "ba_code": "MISO",
    "long": -91.5542,
    "county": "Allamakee",
    "state": "IA",
    "zip": 52162,
    "address": "665 Lybrand St",
    "lat": 43.0906,
    "grid_owner_id": 56088,
    "water_source": null,
    "type": "IPP Non-CHP",
    "id": 54712
  },
  {
    "city": "Nevada",
    "grid_voltage": null,
    "name": "Alliant SBD 8603 Donnelley",
    "ba_code": "MISO",
    "long": -93.441666,
    "county": "Story",
    "state": "IA",
    "zip": 50201,
    "address": "1235 North Ave",
    "lat": 42.025,
    "grid_owner_id": 56088,
    "water_source": null,
    "type": "IPP Non-CHP",
    "id": 54713
  },
  {
    "city": "Cedar Rapids",
    "grid_voltage": 0.48,
    "name": "Alliant SBD 8501 Aegon LI",
    "ba_code": "MISO",
    "long": -91.7069,
    "county": "Linn",
    "state": "IA",
    "zip": 52499,
    "address": "4333 Edgewood Road NE",
    "lat": 42.0308,
    "grid_owner_id": 56088,
    "water_source": null,
    "type": "IPP Non-CHP",
    "id": 54714
  },
  {
    "city": "Marshalltown",
    "grid_voltage": 4.16,
    "name": "Alliant SBD 9107 JBS USA",
    "ba_code": "MISO",
    "long": -92.8971,
    "county": "Marshall",
    "state": "IA",
    "zip": 50158,
    "address": "North 9th Ave",
    "lat": 42.056,
    "grid_owner_id": 56088,
    "water_source": null,
    "type": "IPP Non-CHP",
    "id": 54715
  },
  {
    "city": "Marion",
    "grid_voltage": 4.16,
    "name": "Alliant SBD 8602 Marion Sub",
    "ba_code": "MISO",
    "long": -91.5975,
    "county": "Linn",
    "state": "IA",
    "zip": 52405,
    "address": "190 12th Street",
    "lat": 42.0289,
    "grid_owner_id": 56088,
    "water_source": null,
    "type": "IPP Non-CHP",
    "id": 54716
  },
  {
    "city": "Cedar Rapids",
    "grid_voltage": 13.2,
    "name": "Alliant SBD 9106 Rockwell CR",
    "ba_code": "MISO",
    "long": -91.6458,
    "county": "Linn",
    "state": "IA",
    "zip": 52498,
    "address": "400 Collins Road NE",
    "lat": 42.0356,
    "grid_owner_id": 56088,
    "water_source": null,
    "type": "IPP Non-CHP",
    "id": 54717
  },
  {
    "city": "Cresco",
    "grid_voltage": 0.48,
    "name": "Alliant SBD 9206 Donaldson",
    "ba_code": "MISO",
    "long": -92.1331,
    "county": "Howard",
    "state": "IA",
    "zip": 52136,
    "address": "111 Donaldson Court",
    "lat": 43.3744,
    "grid_owner_id": 56088,
    "water_source": null,
    "type": "IPP Non-CHP",
    "id": 54718
  },
  {
    "city": "Marengo",
    "grid_voltage": 4.16,
    "name": "Alliant SBD 8601 Quad Graphics",
    "ba_code": "MISO",
    "long": -92.0592,
    "county": "Iowa",
    "state": "IA",
    "zip": 52301,
    "address": "810 E. South St",
    "lat": 41.7958,
    "grid_owner_id": 56088,
    "water_source": null,
    "type": "IPP Non-CHP",
    "id": 54720
  },
  {
    "city": "Dubuque",
    "grid_voltage": 0.48,
    "name": "Alliant SBD 9301 Prairie Farms",
    "ba_code": "MISO",
    "long": -90.6847,
    "county": "Dubuque",
    "state": "IA",
    "zip": 52001,
    "address": "3510 Central Ave",
    "lat": 42.53,
    "grid_owner_id": 56088,
    "water_source": null,
    "type": "IPP Non-CHP",
    "id": 54735
  },
  {
    "city": "Cedar Rapids",
    "grid_voltage": 0.48,
    "name": "Alliant SBD 9403 Aegon DC",
    "ba_code": "MISO",
    "long": -91.6542,
    "county": "Linn",
    "state": "IA",
    "zip": 52402,
    "address": "6910 Tower Road SW",
    "lat": 41.9167,
    "grid_owner_id": 56088,
    "water_source": null,
    "type": "IPP Non-CHP",
    "id": 54929
  },
  {
    "city": "Ft. Madison",
    "grid_voltage": 12.47,
    "name": "Alliant SBD 9402 Climax",
    "ba_code": "MISO",
    "long": -91.42453,
    "county": "Lee",
    "state": "IA",
    "zip": 52627,
    "address": "2598 Highway 61 South",
    "lat": 40.58415,
    "grid_owner_id": 56088,
    "water_source": null,
    "type": "IPP Non-CHP",
    "id": 54930
  },
  {
    "city": "Cedar Rapids",
    "grid_voltage": 0.48,
    "name": "Alliant SBD 9302 Aegon NP",
    "ba_code": "MISO",
    "long": -91.7042,
    "county": "Linn",
    "state": "IA",
    "zip": 52499,
    "address": "4515 North River Blvd",
    "lat": 42.0264,
    "grid_owner_id": 56088,
    "water_source": null,
    "type": "IPP Non-CHP",
    "id": 54967
  },
  {
    "city": "Belmond",
    "grid_voltage": 12.47,
    "name": "Alliant SBD 9502 Eaton",
    "ba_code": "MISO",
    "long": -93.60325,
    "county": "Wright",
    "state": "IA",
    "zip": 50421,
    "address": "700 Luick's Lane",
    "lat": 42.83815,
    "grid_owner_id": 56088,
    "water_source": null,
    "type": "IPP Non-CHP",
    "id": 54968
  },
  {
    "city": "Hiawatha",
    "grid_voltage": 0.48,
    "name": "Alliant SBD 9702 Cedar Graphics",
    "ba_code": "MISO",
    "long": -91.675,
    "county": "Linn",
    "state": "IA",
    "zip": 52233,
    "address": "311 Parsons Dr",
    "lat": 42.041667,
    "grid_owner_id": 56088,
    "water_source": null,
    "type": "IPP Non-CHP",
    "id": 55315
  },
  {
    "city": "Cedar Rapids",
    "grid_voltage": 13.8,
    "name": "Alliant SBD0201 Penford Produc",
    "ba_code": "MISO",
    "long": -91.66623,
    "county": "Linn",
    "state": "IA",
    "zip": 52405,
    "address": "1001 1st St SW",
    "lat": 41.97007,
    "grid_owner_id": 56088,
    "water_source": null,
    "type": "IPP Non-CHP",
    "id": 55996
  },
  {
    "city": "Hiawatha",
    "grid_voltage": 0.48,
    "name": "Alliant SBD 9801 Aegon Martha's Way",
    "ba_code": "MISO",
    "long": -91.6969,
    "county": "Linn",
    "state": "IA",
    "zip": 52406,
    "address": "One Martha's Way",
    "lat": 42.0453,
    "grid_owner_id": 56088,
    "water_source": null,
    "type": "IPP Non-CHP",
    "id": 56072
  },
  {
    "city": "Cedar Rapids",
    "grid_voltage": 0.48,
    "name": "Alliant SBG 9802 Toyota",
    "ba_code": "MISO",
    "long": -91.7111,
    "county": "Linn",
    "state": "IA",
    "zip": 52411,
    "address": "5005 N. River Blvd NE",
    "lat": 42.02771,
    "grid_owner_id": 11053,
    "water_source": null,
    "type": "IPP Non-CHP",
    "id": 56073
  },
  {
    "city": "Cedar Rapids",
    "grid_voltage": 0.48,
    "name": "Alliant SBD 9901 GE Capital",
    "ba_code": "MISO",
    "long": -91.63852,
    "county": "Linn",
    "state": "IA",
    "zip": 52404,
    "address": "1010 Thomas Edison Blvd SW",
    "lat": 41.9244,
    "grid_owner_id": 56088,
    "water_source": null,
    "type": "IPP Non-CHP",
    "id": 56074
  },
  {
    "city": "Big Spring",
    "grid_voltage": 138,
    "name": "Big Spring Texas Refinery",
    "ba_code": "ERCO",
    "long": -101.422436,
    "county": "Howard",
    "state": "TX",
    "zip": 79720,
    "address": "Refinery Road & East I-20",
    "lat": 32.273182,
    "grid_owner_id": 55998,
    "water_source": "Lake Spence",
    "type": "Industrial Non-CHP",
    "id": 10569
  },
  {
    "city": "Alta",
    "grid_voltage": 4,
    "name": "Alta Municipal Utilities",
    "ba_code": "MISO",
    "long": -95.3039,
    "county": "Buena Vista",
    "state": "IA",
    "zip": 51002,
    "address": "209 East 2nd Street",
    "lat": 42.6733,
    "grid_owner_id": 405,
    "water_source": "Well",
    "type": "Electric Utility",
    "id": 1121
  },
  {
    "city": "Alamont",
    "grid_voltage": 69,
    "name": "Altamont",
    "ba_code": "MISO",
    "long": -88.75,
    "county": "Effingham",
    "state": "IL",
    "zip": 62411,
    "address": "10590 North 205th Street",
    "lat": 39,
    "grid_owner_id": 9208,
    "water_source": "Municipal Water System",
    "type": "Electric Utility",
    "id": 7990
  },
  {
    "city": "Denver City",
    "grid_voltage": 230,
    "name": "Wasson CO2 Removal Plant",
    "ba_code": "SWPP",
    "long": -102.756945,
    "county": "Yoakum",
    "state": "TX",
    "zip": 79323,
    "address": "2582 County Road 355",
    "lat": 33.009944,
    "grid_owner_id": 17718,
    "water_source": "Wells",
    "type": "Industrial CHP",
    "id": 52122
  },
  {
    "city": "Twin Falls",
    "grid_voltage": 12,
    "name": "Amalgamated Sugar Twin Falls",
    "ba_code": "IPCO",
    "long": -114.4328,
    "county": "Twin Falls",
    "state": "ID",
    "zip": 83301,
    "address": "2320 Orchard Drive East",
    "lat": 42.5328,
    "grid_owner_id": 9191,
    "water_source": "Rock Creek",
    "type": "Industrial CHP",
    "id": 10504
  },
  {
    "city": "Goshen",
    "grid_voltage": 12.5,
    "name": "Al Turi",
    "ba_code": "NYIS",
    "long": -74.3731,
    "county": "Orange",
    "state": "NY",
    "zip": 10924,
    "address": "91 Hartley Road",
    "lat": 41.4083,
    "grid_owner_id": 14154,
    "water_source": null,
    "type": "IPP Non-CHP",
    "id": 10549
  },
  {
    "city": "Niagara Falls",
    "grid_voltage": 115,
    "name": "Covanta Niagara LP",
    "ba_code": "NYIS",
    "long": -79.0056,
    "county": "Niagara",
    "state": "NY",
    "zip": 14304,
    "address": "100 Energy Blvd & 56th St",
    "lat": 43.0839,
    "grid_owner_id": 56404,
    "water_source": "Niagara River & Municipality",
    "type": "IPP CHP",
    "id": 50472
  },
  {
    "city": "Amedee",
    "grid_voltage": 60,
    "name": "Amedee Geothermal Venture I",
    "ba_code": "CISO",
    "long": -120.105,
    "county": "Lassen",
    "state": "CA",
    "zip": 96127,
    "address": "US 395 at Road A3",
    "lat": 40.300833,
    "grid_owner_id": 14328,
    "water_source": "Well",
    "type": "IPP Non-CHP",
    "id": 50964
  },
  {
    "city": "Westbury",
    "grid_voltage": 69,
    "name": "Covanta Hempstead",
    "ba_code": "NYIS",
    "long": -73.5906,
    "county": "Nassau",
    "state": "NY",
    "zip": 11590,
    "address": "600 Merchants Concourse",
    "lat": 40.7389,
    "grid_owner_id": 11171,
    "water_source": "Wells And Municipal",
    "type": "IPP Non-CHP",
    "id": 10642
  },
  {
    "city": "Hillsboro",
    "grid_voltage": 12.5,
    "name": "American Crystal Sugar Hillsboro",
    "ba_code": "MISO",
    "long": -97.06311,
    "county": "Traill",
    "state": "ND",
    "zip": 58045,
    "address": "Highway 81 South",
    "lat": 47.437562,
    "grid_owner_id": 12301,
    "water_source": "N/A",
    "type": "Industrial CHP",
    "id": 54210
  },
  {
    "city": "Moorhead",
    "grid_voltage": 12.5,
    "name": "American Crystal Sugar Moorhead",
    "ba_code": "WAUE",
    "long": -96.76112,
    "county": "Clay",
    "state": "MN",
    "zip": 56560,
    "address": "2500 North 11th",
    "lat": 46.9026,
    "grid_owner_id": 12894,
    "water_source": "N/A",
    "type": "Industrial CHP",
    "id": 54211
  },
  {
    "city": "Crookston",
    "grid_voltage": 12.5,
    "name": "American Crystal Sugar Crookston",
    "ba_code": "MISO",
    "long": -96.633375,
    "county": "Polk",
    "state": "MN",
    "zip": 56716,
    "address": "Highway 75 South",
    "lat": 47.76468,
    "grid_owner_id": 14232,
    "water_source": "N/A",
    "type": "Industrial CHP",
    "id": 54212
  },
  {
    "city": "Drayton",
    "grid_voltage": 4.16,
    "name": "American Crystal Sugar Drayton",
    "ba_code": "MISO",
    "long": -97.17608,
    "county": "Pembina",
    "state": "ND",
    "zip": 58225,
    "address": "County Hwy 44",
    "lat": 48.593158,
    "grid_owner_id": 12301,
    "water_source": "N/A",
    "type": "Industrial CHP",
    "id": 54213
  },
  {
    "city": "East Grand Forks",
    "grid_voltage": 12.5,
    "name": "American Crystal Sugar East Grand Forks",
    "ba_code": "MISO",
    "long": -97.007153,
    "county": "Polk",
    "state": "MN",
    "zip": 56721,
    "address": "Business Hwy 2",
    "lat": 47.927202,
    "grid_owner_id": 5575,
    "water_source": "N/A",
    "type": "Industrial CHP",
    "id": 54214
  },
  {
    "city": "Petersburg",
    "grid_voltage": 4.16,
    "name": "Warrior Ridge Hydro",
    "ba_code": "PJM",
    "long": -78.034628,
    "county": "Huntingdon",
    "state": "PA",
    "zip": 16669,
    "address": "8217 Warrior Ridge Road",
    "lat": 40.540042,
    "grid_owner_id": 14711,
    "water_source": "Juniata River",
    "type": "IPP Non-CHP",
    "id": 10152
  },
  {
    "city": "Coffeen",
    "grid_voltage": 345,
    "name": "Coffeen",
    "ba_code": "MISO",
    "long": -89.4031,
    "county": "Montgomery",
    "state": "IL",
    "zip": 62017,
    "address": "134 CIPS Lane",
    "lat": 39.0586,
    "grid_owner_id": 3253,
    "water_source": "McDavid Branch",
    "type": "IPP Non-CHP",
    "id": 861
  },
  {
    "city": "Newton",
    "grid_voltage": 345,
    "name": "Newton",
    "ba_code": "MISO",
    "long": -88.2781,
    "county": "Jasper",
    "state": "IL",
    "zip": 62448,
    "address": "6725 N. 500th",
    "lat": 38.9361,
    "grid_owner_id": 3253,
    "water_source": "Laws Creek, Sandy Creek",
    "type": "IPP Non-CHP",
    "id": 6017
  },
  {
    "city": "Preston",
    "grid_voltage": 69,
    "name": "Covanta Southeastern Connecticut Company",
    "ba_code": "ISNE",
    "long": -72.0688,
    "county": "New London",
    "state": "CT",
    "zip": 6365,
    "address": "132 US Submarine Vet Mem Hwy",
    "lat": 41.475,
    "grid_owner_id": 4176,
    "water_source": "Norwich Utilities",
    "type": "IPP Non-CHP",
    "id": 10646
  },
  {
    "city": "Newark",
    "grid_voltage": 138,
    "name": "Covanta Essex Company",
    "ba_code": "PJM",
    "long": -74.1255,
    "county": "Essex",
    "state": "NJ",
    "zip": 7105,
    "address": "183 Raymond Blvd",
    "lat": 40.7376,
    "grid_owner_id": 15477,
    "water_source": "Air Cooled Condensor",
    "type": "IPP Non-CHP",
    "id": 10643
  },
  {
    "city": "Arabi",
    "grid_voltage": 13.8,
    "name": "Domino Sugar Arabi Plant",
    "ba_code": "MISO",
    "long": -90.0018,
    "county": "ST BERNARD",
    "state": "LA",
    "zip": 70032,
    "address": "7417 North Peters Street",
    "lat": 29.9468,
    "grid_owner_id": 11241,
    "water_source": "Mississippi River",
    "type": "Industrial CHP",
    "id": 54512
  },
  {
    "city": "Ames",
    "grid_voltage": 69,
    "name": "Ames Electric Services Power Plant",
    "ba_code": "MISO",
    "long": -93.6089,
    "county": "Story",
    "state": "IA",
    "zip": 50010,
    "address": "200 E 5th St",
    "lat": 42.0258,
    "grid_owner_id": 554,
    "water_source": "Wells - Ames Alluvial Aquifer",
    "type": "Electric Utility",
    "id": 1122
  },
  {
    "city": "Ames",
    "grid_voltage": 69,
    "name": "Ames GT",
    "ba_code": "MISO",
    "long": -93.5828,
    "county": "Story",
    "state": "IA",
    "zip": 50010,
    "address": "2300 Pullman St",
    "lat": 42.0272,
    "grid_owner_id": 554,
    "water_source": "Municipality",
    "type": "Electric Utility",
    "id": 6463
  },
  {
    "city": "Grant Town",
    "grid_voltage": 138,
    "name": "Grant Town Power Plant",
    "ba_code": "PJM",
    "long": -80.163138,
    "county": "Marion",
    "state": "WV",
    "zip": 26574,
    "address": "Hwy 17 1/2 Mile SE Grant Town",
    "lat": 39.561831,
    "grid_owner_id": 12796,
    "water_source": "Monongahela River",
    "type": "IPP Non-CHP",
    "id": 10151
  },
  {
    "city": "Chester",
    "grid_voltage": 230,
    "name": "Covanta Delaware Valley",
    "ba_code": "PJM",
    "long": -75.3882,
    "county": "Delaware",
    "state": "PA",
    "zip": 19013,
    "address": "10 Highland Avenue",
    "lat": 39.8265,
    "grid_owner_id": 14940,
    "water_source": "Municipality",
    "type": "IPP Non-CHP",
    "id": 10746
  },
  {
    "city": "Anaheim",
    "grid_voltage": 66,
    "name": "Anaheim GT",
    "ba_code": "CISO",
    "long": -117.856286,
    "county": "Orange",
    "state": "CA",
    "zip": 92806,
    "address": "1144 North Kraemer Blvd",
    "lat": 33.853542,
    "grid_owner_id": 590,
    "water_source": "City ground water and MWD",
    "type": "Electric Utility",
    "id": 7693
  },
  {
    "city": "Anaheim",
    "grid_voltage": 69,
    "name": "Canyon Power Plant",
    "ba_code": "CISO",
    "long": -117.861667,
    "county": "Orange",
    "state": "CA",
    "zip": 92806,
    "address": "3071 East Miraloma Ave.",
    "lat": 33.858056,
    "grid_owner_id": 590,
    "water_source": "City of Anaheim, OC Water Dist",
    "type": "Electric Utility",
    "id": 57027
  },
  {
    "city": "Anchorage",
    "grid_voltage": 115,
    "name": "Anchorage 1",
    "ba_code": null,
    "long": -149.8661,
    "county": "Anchorage",
    "state": "AK",
    "zip": 99501,
    "address": "821 E. 1st Ave",
    "lat": 61.2221,
    "grid_owner_id": 599,
    "water_source": "N/A",
    "type": "Electric Utility",
    "id": 75
  },
  {
    "city": "Palmer",
    "grid_voltage": 115,
    "name": "Eklutna Hydro Project",
    "ba_code": null,
    "long": -149.15009,
    "county": "Matanuska Susitna",
    "state": "AK",
    "zip": 99645,
    "address": "Mile 4 Old Glenn Hwy.",
    "lat": 61.475211,
    "grid_owner_id": 3522,
    "water_source": "Eklutna Lake",
    "type": "Electric Utility",
    "id": 77
  },
  {
    "city": "Anchorage",
    "grid_voltage": 115,
    "name": "George M Sullivan Generation Plant 2",
    "ba_code": null,
    "long": -149.716744,
    "county": "Anchorage",
    "state": "AK",
    "zip": 99504,
    "address": "8700 Starview Drive",
    "lat": 61.229713,
    "grid_owner_id": 599,
    "water_source": "Municipality",
    "type": "Electric Utility",
    "id": 6559
  },
  {
    "city": "St. Louis",
    "grid_voltage": 34.5,
    "name": "Anheuser-Busch St Louis",
    "ba_code": "MISO",
    "long": -90.210671,
    "county": "St Louis City",
    "state": "MO",
    "zip": 63118,
    "address": "One Busch Place",
    "lat": 38.597755,
    "grid_owner_id": 19436,
    "water_source": "Municipality",
    "type": "Industrial CHP",
    "id": 10430
  },
  {
    "city": "Jacksonville",
    "grid_voltage": 138,
    "name": "Anheuser-Busch Jacksonville",
    "ba_code": "JEA",
    "long": -81.645351,
    "county": "DUVAL",
    "state": "FL",
    "zip": 32218,
    "address": "111 Busch Drive",
    "lat": 30.43424,
    "grid_owner_id": 9617,
    "water_source": "Municipality",
    "type": "Industrial CHP",
    "id": 10431
  },
  {
    "city": "Newark",
    "grid_voltage": 26.4,
    "name": "Anheuser-Busch Newark Brewery",
    "ba_code": "PJM",
    "long": -74.173055,
    "county": "ESSEX",
    "state": "NJ",
    "zip": 7101,
    "address": "200 U.S. Highway One",
    "lat": 40.735833,
    "grid_owner_id": 15477,
    "water_source": "Municipality",
    "type": "Industrial CHP",
    "id": 54913
  },
  {
    "city": "Bellingham",
    "grid_voltage": 345,
    "name": "ANP Bellingham Energy Project",
    "ba_code": "ISNE",
    "long": -71.453468,
    "county": "Norfolk",
    "state": "MA",
    "zip": 2019,
    "address": "155 Maple Street",
    "lat": 42.110577,
    "grid_owner_id": 13516,
    "water_source": "Municipal/Air Cooled Condenser",
    "type": "IPP Non-CHP",
    "id": 55211
  },
  {
    "city": "Blackstone",
    "grid_voltage": 345,
    "name": "ANP Blackstone Energy Project",
    "ba_code": "ISNE",
    "long": -71.515811,
    "county": "Worcester",
    "state": "MA",
    "zip": 1504,
    "address": "204 Elm Street",
    "lat": 42.059876,
    "grid_owner_id": 54913,
    "water_source": "Air Cool Condensers",
    "type": "IPP Non-CHP",
    "id": 55212
  },
  {
    "city": "Anita",
    "grid_voltage": 35,
    "name": "Anita",
    "ba_code": "MISO",
    "long": -94.7689,
    "county": "Cass",
    "state": "IA",
    "zip": 50020,
    "address": "828 Main Street",
    "lat": 41.4444,
    "grid_owner_id": 682,
    "water_source": null,
    "type": "Electric Utility",
    "id": 1123
  },
  {
    "city": "Ansley",
    "grid_voltage": 2.4,
    "name": "Ansley",
    "ba_code": "SWPP",
    "long": -99.4978,
    "county": "Custer",
    "state": "NE",
    "zip": 68814,
    "address": "909 Division Street",
    "lat": 41.3528,
    "grid_owner_id": 4671,
    "water_source": "Municipality",
    "type": "Electric Utility",
    "id": 2214
  },
  {
    "city": "Anthony",
    "grid_voltage": 24.9,
    "name": "Anthony",
    "ba_code": "SWPP",
    "long": -98.0311,
    "county": "Harper",
    "state": "KS",
    "zip": 67003,
    "address": "71D SW 20th Rd",
    "lat": 37.1517,
    "grid_owner_id": 701,
    "water_source": "Wells",
    "type": "Electric Utility",
    "id": 1258
  },
  {
    "city": "Ivanhoe",
    "grid_voltage": 13.2,
    "name": "Buck Hydro",
    "ba_code": "PJM",
    "long": -80.938714,
    "county": "Carroll",
    "state": "VA",
    "zip": 24350,
    "address": "Route 737",
    "lat": 36.808229,
    "grid_owner_id": 733,
    "water_source": "New River",
    "type": "Electric Utility",
    "id": 3772
  },
  {
    "city": "Ivanhoe",
    "grid_voltage": 69,
    "name": "Byllesby 2",
    "ba_code": "PJM",
    "long": -80.9333,
    "county": "Carroll",
    "state": "VA",
    "zip": 24350,
    "address": "Route 602",
    "lat": 36.7858,
    "grid_owner_id": 733,
    "water_source": "New River",
    "type": "Electric Utility",
    "id": 3773
  },
  {
    "city": "Radford",
    "grid_voltage": 138,
    "name": "Claytor",
    "ba_code": "PJM",
    "long": -80.5847,
    "county": "Pulaski",
    "state": "VA",
    "zip": 24141,
    "address": "Route 605",
    "lat": 37.075,
    "grid_owner_id": 733,
    "water_source": "New River",
    "type": "Electric Utility",
    "id": 3774
  },
  {
    "city": "Cleveland",
    "grid_voltage": 138,
    "name": "Clinch River",
    "ba_code": "PJM",
    "long": -82.1997,
    "county": "Russell",
    "state": "VA",
    "zip": 24225,
    "address": "State Route 82",
    "lat": 36.9333,
    "grid_owner_id": 733,
    "water_source": "Clinch River",
    "type": "Electric Utility",
    "id": 3775
  },
  {
    "city": "Glen Lyn",
    "grid_voltage": 138,
    "name": "Glen Lyn",
    "ba_code": "PJM",
    "long": -80.8633,
    "county": "Giles",
    "state": "VA",
    "zip": 24093,
    "address": "U.S Route 460",
    "lat": 37.3706,
    "grid_owner_id": 733,
    "water_source": "New River",
    "type": "Electric Utility",
    "id": 3776
  },
  {
    "city": "Hurt",
    "grid_voltage": 138,
    "name": "Leesville",
    "ba_code": "PJM",
    "long": -79.4025,
    "county": "Pittsylvania",
    "state": "VA",
    "zip": 24563,
    "address": "Rt. 754",
    "lat": 37.0933,
    "grid_owner_id": 733,
    "water_source": "Roanoke River",
    "type": "Electric Utility",
    "id": 3777
  },
  {
    "city": "Vinton",
    "grid_voltage": 12,
    "name": "Niagara",
    "ba_code": "PJM",
    "long": -79.8756,
    "county": "Roanoke",
    "state": "VA",
    "zip": 24179,
    "address": "1495 Niagara Rd",
    "lat": 37.2544,
    "grid_owner_id": 733,
    "water_source": "Roanoke River",
    "type": "Electric Utility",
    "id": 3778
  },
  {
    "city": "Lynchburg",
    "grid_voltage": 34.5,
    "name": "Reusens",
    "ba_code": "PJM",
    "long": -79.1856,
    "county": "Campbell",
    "state": "VA",
    "zip": 24503,
    "address": "4300 Hydro Street",
    "lat": 37.4639,
    "grid_owner_id": 733,
    "water_source": "James River",
    "type": "Electric Utility",
    "id": 3779
  },
  {
    "city": "Penhook",
    "grid_voltage": 138,
    "name": "Smith Mountain",
    "ba_code": "PJM",
    "long": -79.5356,
    "county": "Pittsylvania",
    "state": "VA",
    "zip": 24141,
    "address": "Route 1",
    "lat": 37.0413,
    "grid_owner_id": 733,
    "water_source": "Roanoke River",
    "type": "Electric Utility",
    "id": 3780
  },
  {
    "city": "St Albans",
    "grid_voltage": 765,
    "name": "John E Amos",
    "ba_code": "PJM",
    "long": -81.8233,
    "county": "Putnam",
    "state": "WV",
    "zip": 25213,
    "address": "U.S. Route 35",
    "lat": 38.4731,
    "grid_owner_id": 733,
    "water_source": "Kanawha River",
    "type": "Electric Utility",
    "id": 3935
  },
  {
    "city": "Glasgow",
    "grid_voltage": 138,
    "name": "Kanawha River",
    "ba_code": "PJM",
    "long": -81.4211,
    "county": "Kanawha",
    "state": "WV",
    "zip": 25086,
    "address": "U.S. Route 60",
    "lat": 38.2056,
    "grid_owner_id": 733,
    "water_source": "Kanawha River",
    "type": "Electric Utility",
    "id": 3936
  },
  {
    "city": "Graham Station",
    "grid_voltage": 138,
    "name": "Philip Sporn",
    "ba_code": "PJM",
    "long": -81.9231,
    "county": "Mason",
    "state": "WV",
    "zip": 25265,
    "address": "State Route 62",
    "lat": 38.9669,
    "grid_owner_id": 733,
    "water_source": "Ohio River",
    "type": "Electric Utility",
    "id": 3938
  },
  {
    "city": "New Haven",
    "grid_voltage": 765,
    "name": "Mountaineer",
    "ba_code": "PJM",
    "long": -81.9344,
    "county": "Mason",
    "state": "WV",
    "zip": 25265,
    "address": "State Route 62",
    "lat": 38.9794,
    "grid_owner_id": 733,
    "water_source": "Ohio River",
    "type": "Electric Utility",
    "id": 6264
  },
  {
    "city": "Handley",
    "grid_voltage": 46,
    "name": "London",
    "ba_code": "PJM",
    "long": -81.3706,
    "county": "Kanawha",
    "state": "WV",
    "zip": 25126,
    "address": "State Route 61",
    "lat": 38.1944,
    "grid_owner_id": 733,
    "water_source": "Kanawha River",
    "type": "Electric Utility",
    "id": 6560
  },
  {
    "city": "Marmet",
    "grid_voltage": 46,
    "name": "Marmet",
    "ba_code": "PJM",
    "long": -81.5695,
    "county": "Kanawha",
    "state": "WV",
    "zip": 25315,
    "address": "86th Street",
    "lat": 38.2526,
    "grid_owner_id": 733,
    "water_source": "Kanawha River",
    "type": "Electric Utility",
    "id": 6561
  },
  {
    "city": "Winfield",
    "grid_voltage": 69,
    "name": "Winfield",
    "ba_code": "PJM",
    "long": -81.91392,
    "county": "Putnam",
    "state": "WV",
    "zip": 25213,
    "address": "U.S. Route 35",
    "lat": 38.5274,
    "grid_owner_id": 733,
    "water_source": "Kanawha River",
    "type": "Electric Utility",
    "id": 6562
  },
  {
    "city": "Huntington",
    "grid_voltage": 138,
    "name": "Ceredo Generating Station",
    "ba_code": "PJM",
    "long": -82.5339,
    "county": "Wayne",
    "state": "WV",
    "zip": 25704,
    "address": "1662 Walker Branch Road",
    "lat": 38.3681,
    "grid_owner_id": 733,
    "water_source": "City of Kenova",
    "type": "Electric Utility",
    "id": 55276
  },
  {
    "city": "Dresden",
    "grid_voltage": 138,
    "name": "Dresden Energy Facility",
    "ba_code": "PJM",
    "long": -82.0276,
    "county": "Muskingum",
    "state": "OH",
    "zip": 43821,
    "address": "9595 McGlade School Road",
    "lat": 40.0928,
    "grid_owner_id": 733,
    "water_source": "Muskingum River",
    "type": "Electric Utility",
    "id": 55350
  },
  {
    "city": "Milton",
    "grid_voltage": 34.5,
    "name": "AEP Milton NaS",
    "ba_code": "PJM",
    "long": -82.1256,
    "county": "Cabell",
    "state": "WV",
    "zip": 25541,
    "address": "2900 E Mud River Rd",
    "lat": 38.3622,
    "grid_owner_id": 56318,
    "water_source": null,
    "type": "Electric Utility",
    "id": 59995
  },
  {
    "city": "San Diego",
    "grid_voltage": 69,
    "name": "NTC/MCRD Energy Facility",
    "ba_code": "CISO",
    "long": -117.2083,
    "county": "SAN DIEGO",
    "state": "CA",
    "zip": 92140,
    "address": "End of Neville Road, Bldg 566",
    "lat": 32.7353,
    "grid_owner_id": 16609,
    "water_source": "City Of San Diego",
    "type": "IPP CHP",
    "id": 10810
  },
  {
    "city": "San Diego",
    "grid_voltage": 69,
    "name": "Naval Station Energy Facility",
    "ba_code": "CISO",
    "long": -117.122447,
    "county": "San Diego",
    "state": "CA",
    "zip": 92136,
    "address": "3970 Suface Navy Blvd Bldg 342",
    "lat": 32.679269,
    "grid_owner_id": 16609,
    "water_source": "Navy Pwc",
    "type": "IPP CHP",
    "id": 10811
  },
  {
    "city": "Coronado",
    "grid_voltage": 69,
    "name": "North Island Energy Facility",
    "ba_code": "CISO",
    "long": -117.189665,
    "county": "San Diego",
    "state": "CA",
    "zip": 92118,
    "address": "Corner Rodgers & Quay Bldg 353",
    "lat": 32.70516,
    "grid_owner_id": 16609,
    "water_source": "Navy Pwc",
    "type": "IPP CHP",
    "id": 10812
  },
  {
    "city": "Petersburg",
    "grid_voltage": 34,
    "name": "Brasfield",
    "ba_code": "PJM",
    "long": -77.524504,
    "county": "Chesterfield",
    "state": "VA",
    "zip": 23803,
    "address": "21511 Chesdin Road",
    "lat": 37.220833,
    "grid_owner_id": 19876,
    "water_source": "Appomattox River",
    "type": "IPP Non-CHP",
    "id": 10155
  },
  {
    "city": "Arcadia",
    "grid_voltage": 69,
    "name": "Arcadia Electric",
    "ba_code": "MISO",
    "long": -91.5034,
    "county": "Trempealeau",
    "state": "WI",
    "zip": 54612,
    "address": "115 South Jackson",
    "lat": 44.2524,
    "grid_owner_id": 4716,
    "water_source": "Municipality",
    "type": "Electric Utility",
    "id": 4100
  },
  {
    "city": "Arcanum",
    "grid_voltage": 12.4,
    "name": "Arcanum",
    "ba_code": "PJM",
    "long": -84.5503,
    "county": "Darke",
    "state": "OH",
    "zip": 45304,
    "address": "19 Water St",
    "lat": 39.9861,
    "grid_owner_id": 768,
    "water_source": "Municipality",
    "type": "Electric Utility",
    "id": 2902
  },
  {
    "city": "Fredonia",
    "grid_voltage": null,
    "name": "Archer Daniels Midland Fredonia",
    "ba_code": "SWPP",
    "long": -95.8,
    "county": "Wilson",
    "state": "KS",
    "zip": 66736,
    "address": "209 West Adams Street",
    "lat": 37.5,
    "grid_owner_id": 6762,
    "water_source": "Municipal",
    "type": "Industrial Non-CHP",
    "id": 10857
  },
  {
    "city": "Valdosta",
    "grid_voltage": 115,
    "name": "Valdosta",
    "ba_code": "SOCO",
    "long": -83.2,
    "county": "Lowndes",
    "state": "GA",
    "zip": 31601,
    "address": "1841 Clay Rd.",
    "lat": 30.8,
    "grid_owner_id": 7140,
    "water_source": "Municipal",
    "type": "Industrial Non-CHP",
    "id": 10859
  },
  {
    "city": "Clinton",
    "grid_voltage": 69,
    "name": "Archer Daniels Midland Clinton",
    "ba_code": "MISO",
    "long": -90.2097,
    "county": "Clinton",
    "state": "IA",
    "zip": 52732,
    "address": "1251 Beaver Channel Parkway",
    "lat": 41.8206,
    "grid_owner_id": 9417,
    "water_source": "Well",
    "type": "Industrial CHP",
    "id": 10860
  },
  {
    "city": "Des Moines",
    "grid_voltage": 34,
    "name": "Archer Daniels Midland Des Moines",
    "ba_code": "MISO",
    "long": -93.584515,
    "county": "Polk",
    "state": "IA",
    "zip": 50316,
    "address": "1935 East Euclid",
    "lat": 41.624438,
    "grid_owner_id": 12341,
    "water_source": "Municipal",
    "type": "Industrial CHP",
    "id": 10861
  },
  {
    "city": "Lincoln",
    "grid_voltage": 35,
    "name": "Archer Daniels Midland Lincoln",
    "ba_code": "SWPP",
    "long": -96.614486,
    "county": "Lancaster",
    "state": "NE",
    "zip": 68507,
    "address": "7800 Thayer",
    "lat": 40.866463,
    "grid_owner_id": 11018,
    "water_source": "Municipal",
    "type": "Industrial CHP",
    "id": 10862
  },
  {
    "city": "Mankato",
    "grid_voltage": 14,
    "name": "Archer Daniels Midland Mankato",
    "ba_code": "MISO",
    "long": -93.99242,
    "county": "Blue Earth",
    "state": "MN",
    "zip": 56001,
    "address": "2019 Third Ave",
    "lat": 44.187066,
    "grid_owner_id": 13781,
    "water_source": "Municipal",
    "type": "Industrial CHP",
    "id": 10863
  },
  {
    "city": "Cedar Rapids",
    "grid_voltage": 69,
    "name": "Archer Daniels Midland Cedar Rapids",
    "ba_code": "MISO",
    "long": -91.6875,
    "county": "Linn",
    "state": "IA",
    "zip": 52406,
    "address": "1350 Waconia Ave SE",
    "lat": 41.9221,
    "grid_owner_id": 9417,
    "water_source": "Municipal",
    "type": "Industrial CHP",
    "id": 10864
  },
  {
    "city": "Decatur",
    "grid_voltage": 138,
    "name": "Archer Daniels Midland Decatur",
    "ba_code": "MISO",
    "long": -88.890756,
    "county": "Macon",
    "state": "IL",
    "zip": 62521,
    "address": "4666 Faries Parkway",
    "lat": 39.870074,
    "grid_owner_id": 9208,
    "water_source": "NWTP",
    "type": "Industrial CHP",
    "id": 10865
  },
  {
    "city": "Peoria",
    "grid_voltage": 13,
    "name": "Archer Daniels Midland Peoria",
    "ba_code": "MISO",
    "long": -89.604911,
    "county": "Peoria",
    "state": "IL",
    "zip": 61602,
    "address": "Foot of Edmund Street",
    "lat": 40.677188,
    "grid_owner_id": 3252,
    "water_source": "Illinois River",
    "type": "Industrial CHP",
    "id": 10866
  },
  {
    "city": "Galesburg",
    "grid_voltage": 12,
    "name": "Galesburg",
    "ba_code": "MISO",
    "long": -90.3333,
    "county": "Knox",
    "state": "IL",
    "zip": 61401,
    "address": "1021 South Henderson",
    "lat": 40.9,
    "grid_owner_id": 9208,
    "water_source": "Municipal",
    "type": "Industrial CHP",
    "id": 54310
  },
  {
    "city": "Little Rock",
    "grid_voltage": 34,
    "name": "Archer Daniels Midland Little Rock",
    "ba_code": "MISO",
    "long": -92.199722,
    "county": "Pulaski",
    "state": "AR",
    "zip": 72203,
    "address": "Foot of E 9th Street",
    "lat": 34.7,
    "grid_owner_id": 814,
    "water_source": "Municipal",
    "type": "Industrial CHP",
    "id": 54311
  },
  {
    "city": "Taylorville",
    "grid_voltage": null,
    "name": "Archer Daniels Midland Taylorville",
    "ba_code": null,
    "long": -89.3,
    "county": "Christian",
    "state": "IL",
    "zip": 62568,
    "address": "1463 North Road",
    "lat": 39.599722,
    "grid_owner_id": null,
    "water_source": "Municipal",
    "type": "Industrial CHP",
    "id": 54312
  },
  {
    "city": "Southport",
    "grid_voltage": 13,
    "name": "Archer Daniels Midland Southport",
    "ba_code": "CPLE",
    "long": -77.9905,
    "county": "Brunswick",
    "state": "NC",
    "zip": 28461,
    "address": "1730 E Moore St SE",
    "lat": 33.9397,
    "grid_owner_id": 3046,
    "water_source": "Municipal",
    "type": "Industrial CHP",
    "id": 54316
  },
  {
    "city": "Enderlin",
    "grid_voltage": 12,
    "name": "Enderlin",
    "ba_code": "MISO",
    "long": -97.5765,
    "county": "Ransom",
    "state": "ND",
    "zip": 58027,
    "address": "5525 136th Ave. SE",
    "lat": 46.6144,
    "grid_owner_id": 14232,
    "water_source": "Municipality",
    "type": "Industrial CHP",
    "id": 54908
  },
  {
    "city": "Mansfield",
    "grid_voltage": 12,
    "name": "Mansfield",
    "ba_code": "ISNE",
    "long": -71.213784,
    "county": "Bristol",
    "state": "MA",
    "zip": 2048,
    "address": "150 Oakland Street",
    "lat": 42.040141,
    "grid_owner_id": 11586,
    "water_source": "Municipal",
    "type": "Industrial CHP",
    "id": 55046
  },
  {
    "city": "Walhalla",
    "grid_voltage": 4,
    "name": "Walhalla",
    "ba_code": "MISO",
    "long": -97.886521,
    "county": "Pembina",
    "state": "ND",
    "zip": 58282,
    "address": "County Road 9",
    "lat": 48.908944,
    "grid_owner_id": 14232,
    "water_source": "Municipal",
    "type": "Industrial CHP",
    "id": 55638
  },
  {
    "city": "Columbus",
    "grid_voltage": 115,
    "name": "Archer Daniels Midland Columbus",
    "ba_code": "SWPP",
    "long": -97.286328,
    "county": "PLATTE",
    "state": "NE",
    "zip": 68601,
    "address": "3000 East 8th Street",
    "lat": 41.416442,
    "grid_owner_id": 11251,
    "water_source": "Wells",
    "type": "Industrial CHP",
    "id": 57046
  },
  {
    "city": "Blacksburg",
    "grid_voltage": 15,
    "name": "Cherokee Falls",
    "ba_code": "DUK",
    "long": -81.5458,
    "county": "CHEROKEE",
    "state": "SC",
    "zip": 29340,
    "address": "1406 Cherokee Falls Road",
    "lat": 35.0642,
    "grid_owner_id": 2212,
    "water_source": "Broad River",
    "type": "Electric Utility",
    "id": 10173
  },
  {
    "city": "Piedmont",
    "grid_voltage": 12.47,
    "name": "Piedmont Hydro Power Project",
    "ba_code": "DUK",
    "long": -82.462102,
    "county": "Greenville",
    "state": "SC",
    "zip": 29673,
    "address": "Highway 86",
    "lat": 34.702021,
    "grid_owner_id": 5416,
    "water_source": "Saluda River",
    "type": "IPP Non-CHP",
    "id": 10787
  },
  {
    "city": "Fries",
    "grid_voltage": 13,
    "name": "Fries Hydroelectric Project",
    "ba_code": "PJM",
    "long": -80.985621,
    "county": "Grayson",
    "state": "VA",
    "zip": 24330,
    "address": "Highway 94",
    "lat": 36.715103,
    "grid_owner_id": 733,
    "water_source": "New River",
    "type": "IPP Non-CHP",
    "id": 10798
  },
  {
    "city": "Ware Shoals",
    "grid_voltage": 46,
    "name": "Ware Shoals Hydro Project",
    "ba_code": "DUK",
    "long": -82.233581,
    "county": "Laurens",
    "state": "SC",
    "zip": 29692,
    "address": "Powerhouse Road",
    "lat": 34.404006,
    "grid_owner_id": 5416,
    "water_source": "Saluda River",
    "type": "IPP Non-CHP",
    "id": 10801
  },
  {
    "city": "Argyle",
    "grid_voltage": 69,
    "name": "Argyle",
    "ba_code": "MISO",
    "long": -89.8697,
    "county": "LAFAYETTE",
    "state": "WI",
    "zip": 53504,
    "address": "100 E Milwaukee Street",
    "lat": 42.7019,
    "grid_owner_id": 4716,
    "water_source": "Pecatonica River",
    "type": "Electric Utility",
    "id": 7810
  },
  {
    "city": "Ka'u",
    "grid_voltage": null,
    "name": "Kamaoa Wind Farm",
    "ba_code": null,
    "long": -155.668056,
    "county": "Hawaii",
    "state": "HI",
    "zip": 96772,
    "address": "93-1373 South Point Road",
    "lat": 18.992222,
    "grid_owner_id": null,
    "water_source": null,
    "type": "IPP Non-CHP",
    "id": 54390
  },
  {
    "city": "Naalehu",
    "grid_voltage": 69,
    "name": "Pakini Nui Wind Farm",
    "ba_code": null,
    "long": -155.6914,
    "county": "Hawaii",
    "state": "HI",
    "zip": 96772,
    "address": "93-1373 South Point Rd.",
    "lat": 18.9742,
    "grid_owner_id": 8287,
    "water_source": null,
    "type": "IPP Non-CHP",
    "id": 56378
  },
  {
    "city": "Cochise",
    "grid_voltage": 230,
    "name": "Apache Station",
    "ba_code": "WALC",
    "long": -109.8931,
    "county": "Cochise",
    "state": "AZ",
    "zip": 85606,
    "address": "3525 N US Hwy 191",
    "lat": 32.0603,
    "grid_owner_id": 56139,
    "water_source": "Wells",
    "type": "Electric Utility",
    "id": 160
  },
  {
    "city": "Camp Verde",
    "grid_voltage": null,
    "name": "Childs",
    "ba_code": null,
    "long": -111.700556,
    "county": "Yavapai",
    "state": "AZ",
    "zip": 85544,
    "address": "Fossil Creek Road",
    "lat": 34.351111,
    "grid_owner_id": null,
    "water_source": "Fossil Creek/Natural Spring",
    "type": "Electric Utility",
    "id": 112
  },
  {
    "city": "Joseph City",
    "grid_voltage": 500,
    "name": "Cholla",
    "ba_code": "AZPS",
    "long": -110.3033,
    "county": "Navajo",
    "state": "AZ",
    "zip": 86032,
    "address": "4801 Cholla Lake Road",
    "lat": 34.9394,
    "grid_owner_id": 803,
    "water_source": "Lake Wells",
    "type": "Electric Utility",
    "id": 113
  },
  {
    "city": "Douglas",
    "grid_voltage": 69,
    "name": "Douglas",
    "ba_code": "AZPS",
    "long": -109.5538,
    "county": "Cochise",
    "state": "AZ",
    "zip": 85607,
    "address": "Sulpher Spring Rd/Lawrence Ave",
    "lat": 31.364122,
    "grid_owner_id": 803,
    "water_source": "Municipality",
    "type": "Electric Utility",
    "id": 114
  },
  {
    "city": "Camp Verde",
    "grid_voltage": null,
    "name": "Irving",
    "ba_code": null,
    "long": -111.617222,
    "county": "Yavapai",
    "state": "AZ",
    "zip": 86322,
    "address": "Fossil Creek Road",
    "lat": 34.402222,
    "grid_owner_id": null,
    "water_source": "Fossil Creek/Natural Spring",
    "type": "Electric Utility",
    "id": 115
  },
  {
    "city": "Tempe",
    "grid_voltage": 69,
    "name": "Ocotillo",
    "ba_code": "AZPS",
    "long": -111.9122,
    "county": "Maricopa",
    "state": "AZ",
    "zip": 85281,
    "address": "1500 East University",
    "lat": 33.4225,
    "grid_owner_id": 803,
    "water_source": "Wells",
    "type": "Electric Utility",
    "id": 116
  },
  {
    "city": "Phoenix",
    "grid_voltage": 230,
    "name": "West Phoenix",
    "ba_code": "AZPS",
    "long": -112.1583,
    "county": "Maricopa",
    "state": "AZ",
    "zip": 85043,
    "address": "4606 West Hadley",
    "lat": 33.4417,
    "grid_owner_id": 803,
    "water_source": "Wells",
    "type": "Electric Utility",
    "id": 117
  },
  {
    "city": "Red Rock",
    "grid_voltage": 115,
    "name": "Saguaro",
    "ba_code": "AZPS",
    "long": -111.3,
    "county": "Pinal",
    "state": "AZ",
    "zip": 85245,
    "address": "Mail Post 228",
    "lat": 32.5517,
    "grid_owner_id": 803,
    "water_source": "Wells",
    "type": "Electric Utility",
    "id": 118
  },
  {
    "city": "Yuma",
    "grid_voltage": 69,
    "name": "Yucca",
    "ba_code": "AZPS",
    "long": -114.7106,
    "county": "Yuma",
    "state": "AZ",
    "zip": 85364,
    "address": "7522 South Somerton Ave.",
    "lat": 32.7214,
    "grid_owner_id": 803,
    "water_source": "Wells",
    "type": "Electric Utility",
    "id": 120
  },
  {
    "city": "Fruitland",
    "grid_voltage": 500,
    "name": "Four Corners",
    "ba_code": "AZPS",
    "long": -108.4814,
    "county": "San Juan",
    "state": "NM",
    "zip": 87416,
    "address": "End of County Rd 6675",
    "lat": 36.69,
    "grid_owner_id": 803,
    "water_source": "SAN JUAN RIVER/MORGAN LAKE",
    "type": "Electric Utility",
    "id": 2442
  },
  {
    "city": "Wintersburg",
    "grid_voltage": 500,
    "name": "Palo Verde",
    "ba_code": "SRP",
    "long": -112.8617,
    "county": "Maricopa",
    "state": "AZ",
    "zip": 85036,
    "address": "Wintersburg Road",
    "lat": 33.3881,
    "grid_owner_id": 16572,
    "water_source": "Phoenix Area Sewage Effluent",
    "type": "Electric Utility",
    "id": 6008
  },
  {
    "city": "Arlintgon",
    "grid_voltage": 500,
    "name": "Red Hawk",
    "ba_code": "SRP",
    "long": -112.840641,
    "county": "Maricopa",
    "state": "AZ",
    "zip": 85322,
    "address": "11600 South 363 rd Ave.",
    "lat": 33.334562,
    "grid_owner_id": 16572,
    "water_source": "Municipal",
    "type": "Electric Utility",
    "id": 55455
  },
  {
    "city": "Casa Grande",
    "grid_voltage": 230,
    "name": "Sundance",
    "ba_code": "WALC",
    "long": -111.5899,
    "county": "Pinal",
    "state": "AZ",
    "zip": 85228,
    "address": "2060 Sundance Road",
    "lat": 32.9285,
    "grid_owner_id": 27000,
    "water_source": "Municipality",
    "type": "Electric Utility",
    "id": 55522
  },
  {
    "city": "Prescott",
    "grid_voltage": 69,
    "name": "Prescott Airport",
    "ba_code": "AZPS",
    "long": -112.4008,
    "county": "Yavapai",
    "state": "AZ",
    "zip": 86301,
    "address": "Melville Road",
    "lat": 34.6584,
    "grid_owner_id": 803,
    "water_source": null,
    "type": "Electric Utility",
    "id": 56228
  },
  {
    "city": "Glendale",
    "grid_voltage": 12.5,
    "name": "Luke Solar",
    "ba_code": "AZPS",
    "long": -112.37944,
    "county": "Maricopa",
    "state": "AZ",
    "zip": 85309,
    "address": "6476 N. Ammo Rd.",
    "lat": 33.526111,
    "grid_owner_id": 803,
    "water_source": null,
    "type": "Electric Utility",
    "id": 57324
  },
  {
    "city": "Chino Valley",
    "grid_voltage": 69,
    "name": "Chino Solar Valley",
    "ba_code": "AZPS",
    "long": -112.42899,
    "county": "Yavapai",
    "state": "AZ",
    "zip": 86323,
    "address": "1900 E Road 4 South",
    "lat": 34.71843,
    "grid_owner_id": 803,
    "water_source": null,
    "type": "Electric Utility",
    "id": 57560
  },
  {
    "city": "Gila Bend",
    "grid_voltage": 12.5,
    "name": "Cotton Center Solar",
    "ba_code": "AZPS",
    "long": -112.661667,
    "county": "Maricopa",
    "state": "AZ",
    "zip": 85337,
    "address": "45625 S Old US 80",
    "lat": 33.034722,
    "grid_owner_id": 803,
    "water_source": null,
    "type": "Electric Utility",
    "id": 57561
  },
  {
    "city": "Gila Bend",
    "grid_voltage": 12.5,
    "name": "Paloma Solar",
    "ba_code": "AZPS",
    "long": -112.661389,
    "county": "Maricopa",
    "state": "AZ",
    "zip": 85337,
    "address": "46701 S Old US 80",
    "lat": 33.021111,
    "grid_owner_id": 803,
    "water_source": null,
    "type": "Electric Utility",
    "id": 57562
  },
  {
    "city": "Hyder",
    "grid_voltage": 12.5,
    "name": "Hyder Solar",
    "ba_code": "AZPS",
    "long": -113.34397,
    "county": "Yuma",
    "state": "AZ",
    "zip": 85333,
    "address": "75100 E County 14 1/2 St",
    "lat": 33.02566,
    "grid_owner_id": 803,
    "water_source": null,
    "type": "Electric Utility",
    "id": 57563
  },
  {
    "city": "Yuma",
    "grid_voltage": 69,
    "name": "Foothills Solar Plant",
    "ba_code": "AZPS",
    "long": -114.428741,
    "county": "Yuma",
    "state": "AZ",
    "zip": 85367,
    "address": "12556 S Ave 12E",
    "lat": 32.64856,
    "grid_owner_id": 803,
    "water_source": null,
    "type": "Electric Utility",
    "id": 57997
  },
  {
    "city": "Hyder",
    "grid_voltage": 12.47,
    "name": "Hyder II",
    "ba_code": "AZPS",
    "long": -113.358889,
    "county": "Yuma",
    "state": "AZ",
    "zip": 85333,
    "address": "75100 E County 14 1/2 St",
    "lat": 33.027778,
    "grid_owner_id": 803,
    "water_source": null,
    "type": "Electric Utility",
    "id": 58383
  },
  {
    "city": "Gila Bend",
    "grid_voltage": 12.47,
    "name": "Gila Bend",
    "ba_code": "AZPS",
    "long": -112.881389,
    "county": "Maricopa",
    "state": "AZ",
    "zip": 85337,
    "address": "32700 W Powerline Rd",
    "lat": 32.940833,
    "grid_owner_id": 803,
    "water_source": null,
    "type": "Electric Utility",
    "id": 59020
  },
  {
    "city": "Buckeye",
    "grid_voltage": null,
    "name": "SR85",
    "ba_code": "AZPS",
    "long": -112.66,
    "county": "Maricopa",
    "state": "AZ",
    "zip": 58326,
    "address": "4699 S 83rd Ave",
    "lat": 33.145,
    "grid_owner_id": 803,
    "water_source": null,
    "type": "Electric Utility",
    "id": 59444
  },
  {
    "city": "Ozark",
    "grid_voltage": 161,
    "name": "Thomas Fitzhugh",
    "ba_code": "SWPP",
    "long": -93.804926,
    "county": "Franklin",
    "state": "AR",
    "zip": 72949,
    "address": "PO Box 78",
    "lat": 35.462382,
    "grid_owner_id": 17698,
    "water_source": "Arkansas River",
    "type": "Electric Utility",
    "id": 201
  },
  {
    "city": "Augusta",
    "grid_voltage": 161,
    "name": "Carl Bailey",
    "ba_code": "MISO",
    "long": -91.363426,
    "county": "Woodruff",
    "state": "AR",
    "zip": 72006,
    "address": "PO Box 503",
    "lat": 35.260102,
    "grid_owner_id": 814,
    "water_source": "White River",
    "type": "Electric Utility",
    "id": 202
  },
  {
    "city": "Camden",
    "grid_voltage": 115,
    "name": "McClellan (AR)",
    "ba_code": "MISO",
    "long": -92.7917,
    "county": "Ouachita",
    "state": "AR",
    "zip": 71701,
    "address": "PO Box 187",
    "lat": 33.5648,
    "grid_owner_id": 814,
    "water_source": "Ouachita River",
    "type": "Electric Utility",
    "id": 203
  },
  {
    "city": "Van Buren",
    "grid_voltage": 69,
    "name": "Ellis Hydro",
    "ba_code": "SWPP",
    "long": -94.294349,
    "county": "Crawford",
    "state": "AR",
    "zip": 72956,
    "address": "Hwy 59",
    "lat": 35.351361,
    "grid_owner_id": 17698,
    "water_source": "Arkansas River",
    "type": "Electric Utility",
    "id": 7040
  },
  {
    "city": "Morrilton",
    "grid_voltage": 161,
    "name": "Whillock",
    "ba_code": "MISO",
    "long": -92.790273,
    "county": "Conway",
    "state": "AR",
    "zip": 72110,
    "address": "Cherokee Park",
    "lat": 35.127591,
    "grid_owner_id": 814,
    "water_source": "Arkansas River",
    "type": "Electric Utility",
    "id": 7135
  },
  {
    "city": "Dumas",
    "grid_voltage": 115,
    "name": "Dam 2",
    "ba_code": "MISO",
    "long": -91.315788,
    "county": "Desha",
    "state": "AR",
    "zip": 71639,
    "address": "Jarvis Point Park",
    "lat": 33.986501,
    "grid_owner_id": 814,
    "water_source": "Arkansas River",
    "type": "Electric Utility",
    "id": 7246
  },
  {
    "city": "Fulton",
    "grid_voltage": 115,
    "name": "Fulton (AR)",
    "ba_code": "SWPP",
    "long": -93.7924,
    "county": "Hempstead",
    "state": "AR",
    "zip": 71838,
    "address": "PO Box 375",
    "lat": 33.6094,
    "grid_owner_id": 17698,
    "water_source": "N/A",
    "type": "Electric Utility",
    "id": 7825
  },
  {
    "city": "Little Rock",
    "grid_voltage": 500,
    "name": "Harry L. Oswald",
    "ba_code": "MISO",
    "long": -92.2166,
    "county": "Pulaski",
    "state": "AR",
    "zip": 72206,
    "address": "17400 Hwy 365",
    "lat": 34.5923,
    "grid_owner_id": 814,
    "water_source": "Municipal",
    "type": "Electric Utility",
    "id": 55221
  },
  {
    "city": "Malvern",
    "grid_voltage": 500,
    "name": "Magnet Cove",
    "ba_code": "MISO",
    "long": -92.8317,
    "county": "Hot Spring",
    "state": "AR",
    "zip": 72104,
    "address": "410 Henderson Road",
    "lat": 34.4297,
    "grid_owner_id": 814,
    "water_source": "Ouachita River",
    "type": "Electric Utility",
    "id": 55714
  },
  {
    "city": "Elkins",
    "grid_voltage": 69,
    "name": "Elkins Generating Center",
    "ba_code": "SWPP",
    "long": -94.0014,
    "county": "Washington",
    "state": "AR",
    "zip": 72727,
    "address": "19481 Springston Ford Road",
    "lat": 35.9714,
    "grid_owner_id": 14289,
    "water_source": "None",
    "type": "Electric Utility",
    "id": 56489
  },
  {
    "city": "Hot Springs",
    "grid_voltage": 115,
    "name": "Carpenter",
    "ba_code": "MISO",
    "long": -93.0262,
    "county": "Garland",
    "state": "AR",
    "zip": 71901,
    "address": "1398 Carpenter Dam Road",
    "lat": 34.4425,
    "grid_owner_id": 814,
    "water_source": "Lake Hamilton",
    "type": "Electric Utility",
    "id": 166
  },
  {
    "city": "North Little Rock",
    "grid_voltage": 115,
    "name": "Cecil Lynch",
    "ba_code": "MISO",
    "long": -92.1987,
    "county": "Pulaski",
    "state": "AR",
    "zip": 72117,
    "address": "5800 Lynch Drive",
    "lat": 34.7535,
    "grid_owner_id": 814,
    "water_source": "Arkansas River",
    "type": "Electric Utility",
    "id": 167
  },
  {
    "city": "Forrest City",
    "grid_voltage": 161,
    "name": "Hamilton Moses",
    "ba_code": "MISO",
    "long": -90.8722,
    "county": "St Francis",
    "state": "AR",
    "zip": 72335,
    "address": "Hwy. 70,  PO box 1897",
    "lat": 34.9806,
    "grid_owner_id": 814,
    "water_source": "L'Anquille River",
    "type": "Electric Utility",
    "id": 168
  },
  {
    "city": "Stamps",
    "grid_voltage": 115,
    "name": "Harvey Couch",
    "ba_code": "MISO",
    "long": -93.4649,
    "county": "Lafayette",
    "state": "AR",
    "zip": 71860,
    "address": "Hwy. 82 East, PO box 187",
    "lat": 33.3592,
    "grid_owner_id": 814,
    "water_source": "Wells",
    "type": "Electric Utility",
    "id": 169
  },
  {
    "city": "Jones Mill",
    "grid_voltage": 115,
    "name": "Lake Catherine",
    "ba_code": "MISO",
    "long": -92.9049,
    "county": "Hot Spring",
    "state": "AR",
    "zip": 72105,
    "address": "Hwy. 270, PO Box 218",
    "lat": 34.4341,
    "grid_owner_id": 814,
    "water_source": "Lake Catherine",
    "type": "Electric Utility",
    "id": 170
  },
  {
    "city": "Mabelvale",
    "grid_voltage": 115,
    "name": "Mabelvale",
    "ba_code": "MISO",
    "long": -92.409602,
    "county": "Pulaski",
    "state": "AR",
    "zip": 72103,
    "address": "Vyme Ridge Road",
    "lat": 34.635997,
    "grid_owner_id": 814,
    "water_source": "Air Cooled",
    "type": "Electric Utility",
    "id": 171
  },
  {
    "city": "Helena",
    "grid_voltage": 230,
    "name": "Robert E Ritchie",
    "ba_code": "MISO",
    "long": -90.5987,
    "county": "Phillips",
    "state": "AR",
    "zip": 72342,
    "address": "Hwy. 20,  PO Box 388",
    "lat": 34.4629,
    "grid_owner_id": 814,
    "water_source": "Mississippi River",
    "type": "Electric Utility",
    "id": 173
  },
  {
    "city": "Malvern",
    "grid_voltage": 115,
    "name": "Remmel",
    "ba_code": "MISO",
    "long": -92.8941,
    "county": "Hot Spring",
    "state": "AR",
    "zip": 72104,
    "address": "RR 5, Box 342",
    "lat": 34.4272,
    "grid_owner_id": 814,
    "water_source": "Lake Catherine",
    "type": "Electric Utility",
    "id": 174
  },